{"type": "FeatureCollection", "features": [{"type": "Feature", "geometry": {"type": "Point", "coordinates": [-106.267, 39.2673]}, "properties": {"name": "2 NE LEADVILLE  TRAINED SPOTTER (LK22)", "elevation": "10610 feet", "report_time_utc": "2021-12-31 18:23", "amount": "3.400", "units": "in", "duration": "24.000", "durationunits": "hours"}}, {"type": "Feature", "geometry": {"type": "Point", "coordinates": [-95.1467, 43.1653]}, "properties": {"name": "SPENCER 1N", "elevation": "1322 feet", "report_time_utc": "2021-12-31 06:00", "amount": "0.001", "units": "in", "duration": "24.000", "durationunits": "hours"}}, {"type": "Feature", "geometry": {"type": "Point", "coordinates": [-100.5348, 43.0908]}, "properties": {"name": "5 SE Olsonville  CoCoRaHS (SD-TD-1)", "elevation": "2628 feet", "report_time_utc": "2021-12-31 13:00", "amount": "1.000", "units": "in", "duration": "24.000", "durationunits": "hours"}}, {"type": "Feature", "geometry": {"type": "Point", "coordinates": [-101.57, 43.17]}, "properties": {"name": "8 E Martin  Co-Op Observer (MRTS2)", "elevation": "3031 feet", "report_time_utc": "2021-12-31 13:00", "amount": "3.000", "units": "in", "duration": "24.000", "durationunits": "hours"}}, {"type": "Feature", "geometry": {"type": "Point", "coordinates": [-100.85, 43.23]}, "properties": {"name": "Rosebud  Trained Spotter (X4321008)", "elevation": "2575 feet", "report_time_utc": "2021-12-31 17:35", "amount": "5.000", "units": "in", "duration": "6.000", "durationunits": "hours"}}, {"type": "Feature", "geometry": {"type": "Point", "coordinates": [-103.8348, 43.29868]}, "properties": {"name": "Edgemont  CoCoRaHS (SD-FR-21)", "elevation": "3507 feet", "report_time_utc": "2021-12-31 14:00", "amount": "1.000", "units": "in", "duration": "24.000", "durationunits": "hours"}}, {"type": "Feature", "geometry": {"type": "Point", "coordinates": [-100.63, 43.3]}, "properties": {"name": "2 ESE MISSION  TRAINED SPOTTER (TD6A)", "elevation": "2556 feet", "report_time_utc": "2021-12-31 17:40", "amount": "4.000", "units": "in", "duration": "6.000", "durationunits": "hours"}}, {"type": "Feature", "geometry": {"type": "Point", "coordinates": [-102.14, 43.44]}, "properties": {"name": "3 ENE Kyle  Co-Op Observer (KYLS2)", "elevation": "2949 feet", "report_time_utc": "2021-12-31 16:00", "amount": "4.000", "units": "in", "duration": "24.000", "durationunits": "hours"}}, {"type": "Feature", "geometry": {"type": "Point", "coordinates": [-103.5622, 43.44347]}, "properties": {"name": "4 W Hot Springs  CoCoRaHS (SD-FR-30)", "elevation": "4055 feet", "report_time_utc": "2021-12-31 14:00", "amount": "1.000", "units": "in", "duration": "24.000", "durationunits": "hours"}}, {"type": "Feature", "geometry": {"type": "Point", "coordinates": [-101.2175, 43.44843]}, "properties": {"name": "2 SW Norris  CoCoRaHS (SD-ML-3)", "elevation": "2575 feet", "report_time_utc": "2021-12-31 14:00", "amount": "6.000", "units": "in", "duration": "24.000", "durationunits": "hours"}}, {"type": "Feature", "geometry": {"type": "Point", "coordinates": [-101.099, 43.45]}, "properties": {"name": "5 ESE Norris  Trained Spotter (X4351011)", "elevation": "2566 feet", "report_time_utc": "2021-12-31 17:25", "amount": "4.800", "units": "in", "duration": "5.000", "durationunits": "hours"}}, {"type": "Feature", "geometry": {"type": "Point", "coordinates": [-99.7114, 43.5868]}, "properties": {"name": "2 WSW Hamill  CoCoRaHS (SD-TP-7)", "elevation": "1821 feet", "report_time_utc": "2021-12-31 14:00", "amount": "5.000", "units": "in", "duration": "24.000", "durationunits": "hours"}}, {"type": "Feature", "geometry": {"type": "Point", "coordinates": [-100.495, 43.603]}, "properties": {"name": "7 N Wood  CoCoRaHS (SD-ML-14)", "elevation": "2169 feet", "report_time_utc": "2021-12-31 13:00", "amount": "2.500", "units": "in", "duration": "24.000", "durationunits": "hours"}}, {"type": "Feature", "geometry": {"type": "Point", "coordinates": [-101.1101, 43.6501]}, "properties": {"name": "7 NW Cedar Butte  CoCoRaHS (SD-ML-11)", "elevation": "2382 feet", "report_time_utc": "2021-12-31 14:00", "amount": "3.000", "units": "in", "duration": "24.000", "durationunits": "hours"}}, {"type": "Feature", "geometry": {"type": "Point", "coordinates": [-101.0264, 43.70812]}, "properties": {"name": "9 N Cedar Butte  CoCoRaHS (SD-ML-7)", "elevation": "2392 feet", "report_time_utc": "2021-12-31 13:00", "amount": "2.200", "units": "in", "duration": "24.000", "durationunits": "hours"}}, {"type": "Feature", "geometry": {"type": "Point", "coordinates": [-103.31322, 43.82399]}, "properties": {"name": "6 W Hermosa  CoCoRaHS (SD-CS-23)", "elevation": "3927 feet", "report_time_utc": "2021-12-31 14:00", "amount": "1.100", "units": "in", "duration": "24.000", "durationunits": "hours"}}, {"type": "Feature", "geometry": {"type": "Point", "coordinates": [-104.1402, 43.85749]}, "properties": {"name": "3 E Newcastle  CoCoRaHS (WY-WS-24)", "elevation": "4600 feet", "report_time_utc": "2021-12-31 13:00", "amount": "1.000", "units": "in", "duration": "24.000", "durationunits": "hours"}}, {"type": "Feature", "geometry": {"type": "Point", "coordinates": [-103.5882, 43.86977]}, "properties": {"name": "4 S Hill City  CoCoRaHS (SD-PN-62)", "elevation": "5568 feet", "report_time_utc": "2021-12-31 12:46", "amount": "2.000", "units": "in", "duration": "24.000", "durationunits": "hours"}}, {"type": "Feature", "geometry": {"type": "Point", "coordinates": [-103.2395, 44.01829]}, "properties": {"name": "4 S Rapid City  CoCoRaHS (SD-PN-43)", "elevation": "3717 feet", "report_time_utc": "2021-12-31 14:00", "amount": "1.300", "units": "in", "duration": "24.000", "durationunits": "hours"}}, {"type": "Feature", "geometry": {"type": "Point", "coordinates": [-103.48, 44.06]}, "properties": {"name": "1 ESE Pactola Resv  Co-Op Observer (RAPS2)", "elevation": "4797 feet", "report_time_utc": "2021-12-31 15:00", "amount": "1.500", "units": "in", "duration": "24.000", "durationunits": "hours"}}, {"type": "Feature", "geometry": {"type": "Point", "coordinates": [-103.1398, 44.0624]}, "properties": {"name": "5 E Dwtn Rapid City  CoCoRaHS (SD-PN-57)", "elevation": "3163 feet", "report_time_utc": "2021-12-31 14:00", "amount": "1.000", "units": "in", "duration": "24.000", "durationunits": "hours"}}, {"type": "Feature", "geometry": {"type": "Point", "coordinates": [-103.23524, 44.07116]}, "properties": {"name": "Rapid City  CoCoRaHS (SD-PN-74)", "elevation": "3327 feet", "report_time_utc": "2021-12-31 15:00", "amount": "1.000", "units": "in", "duration": "24.000", "durationunits": "hours"}}, {"type": "Feature", "geometry": {"type": "Point", "coordinates": [-103.21047, 44.07267]}, "properties": {"name": "1 E DOWNTOWN RAPID CITY  NWS OFFICE (X4411032)", "elevation": "3369 feet", "report_time_utc": "2021-12-31 21:31", "amount": "1.900", "units": "in", "duration": "10.000", "durationunits": "hours"}}, {"type": "Feature", "geometry": {"type": "Point", "coordinates": [-103.3701, 44.08657]}, "properties": {"name": "3 NE Hisega  CoCoRaHS (SD-PN-40)", "elevation": "4206 feet", "report_time_utc": "2021-12-31 14:00", "amount": "2.000", "units": "in", "duration": "24.000", "durationunits": "hours"}}, {"type": "Feature", "geometry": {"type": "Point", "coordinates": [-103.2997, 44.0886]}, "properties": {"name": "3 WNW Rapid City  CoCoRaHS (SD-PN-2)", "elevation": "3465 feet", "report_time_utc": "2021-12-31 14:00", "amount": "2.100", "units": "in", "duration": "24.000", "durationunits": "hours"}}, {"type": "Feature", "geometry": {"type": "Point", "coordinates": [-103.41157, 44.12735]}, "properties": {"name": "10 WNW Rapid City  CoCoRaHS (SD-PN-56)", "elevation": "4308 feet", "report_time_utc": "2021-12-31 14:00", "amount": "2.400", "units": "in", "duration": "24.000", "durationunits": "hours"}}, {"type": "Feature", "geometry": {"type": "Point", "coordinates": [-103.0532, 44.13865]}, "properties": {"name": "2 NE Box Elder  CoCoRaHS (SD-PN-50)", "elevation": "3146 feet", "report_time_utc": "2021-12-31 15:00", "amount": "1.500", "units": "in", "duration": "24.000", "durationunits": "hours"}}, {"type": "Feature", "geometry": {"type": "Point", "coordinates": [-103.2966, 44.23068]}, "properties": {"name": "4 NNE Summerset  CoCoRaHS (SD-MD-32)", "elevation": "3209 feet", "report_time_utc": "2021-12-31 13:15", "amount": "1.500", "units": "in", "duration": "24.000", "durationunits": "hours"}}, {"type": "Feature", "geometry": {"type": "Point", "coordinates": [-102.436, 44.271]}, "properties": {"name": "5 ESE ELM SPRINGS  TRAINED SPOTTER (ME33)", "elevation": "2539 feet", "report_time_utc": "2021-12-31 16:54", "amount": "2.000", "units": "in", "duration": "5.000", "durationunits": "hours"}}, {"type": "Feature", "geometry": {"type": "Point", "coordinates": [-104.37067, 44.40149]}, "properties": {"name": "Sundance  CoCoRaHS (WY-CK-32)", "elevation": "4777 feet", "report_time_utc": "2021-12-31 13:00", "amount": "2.000", "units": "in", "duration": "24.000", "durationunits": "hours"}}, {"type": "Feature", "geometry": {"type": "Point", "coordinates": [-103.3729, 44.4245]}, "properties": {"name": "7 E Sturgis  AWDN (X4441034)", "elevation": "3219 feet", "report_time_utc": "2021-12-31 13:41", "amount": "1.200", "units": "in", "duration": "24.000", "durationunits": "hours"}}, {"type": "Feature", "geometry": {"type": "Point", "coordinates": [-104.1721, 44.4792]}, "properties": {"name": "6 SW Beulah  CoCoRaHS (WY-CK-18)", "elevation": "4318 feet", "report_time_utc": "2021-12-31 15:00", "amount": "2.000", "units": "in", "duration": "24.000", "durationunits": "hours"}}, {"type": "Feature", "geometry": {"type": "Point", "coordinates": [-103.89522, 44.51044]}, "properties": {"name": "2 WNW Dwtn Spearfish  CoCoRaHS (SD-LW-26)", "elevation": "3599 feet", "report_time_utc": "2021-12-31 14:00", "amount": "2.000", "units": "in", "duration": "24.000", "durationunits": "hours"}}, {"type": "Feature", "geometry": {"type": "Point", "coordinates": [-103.8958, 44.57932]}, "properties": {"name": "6 NNW Dwtn Spearfish  CoCoRaHS (SD-LW-24)", "elevation": "3297 feet", "report_time_utc": "2021-12-31 14:00", "amount": "1.500", "units": "in", "duration": "24.000", "durationunits": "hours"}}, {"type": "Feature", "geometry": {"type": "Point", "coordinates": [-111.097, 44.6617]}, "properties": {"name": "MT GALLATIN WEST YELLOWSTONE CO-OP OBSERVER (WYGM8)", "elevation": "6680 feet", "report_time_utc": "2021-12-31 14:05", "amount": "3.000", "units": "in", "duration": "24.000", "durationunits": "hours"}}, {"type": "Feature", "geometry": {"type": "Point", "coordinates": [-113.028, 44.9411]}, "properties": {"name": "MT BEAVERHEAD DILLON 26 SSW CO-OP OBSERVER (GRNM8)", "elevation": "5981 feet", "report_time_utc": "2021-12-31 15:00", "amount": "1.000", "units": "in", "duration": "24.000", "durationunits": "hours"}}, {"type": "Feature", "geometry": {"type": "Point", "coordinates": [-101.96, 44.99]}, "properties": {"name": "9 WSW RED ELM  TRAINED SPOTTER (ZB10)", "elevation": "2552 feet", "report_time_utc": "2021-12-31 14:19", "amount": "1.000", "units": "in", "duration": "2.000", "durationunits": "hours"}}, {"type": "Feature", "geometry": {"type": "Point", "coordinates": [-111.633, 45.4875]}, "properties": {"name": "MT MADISON 6.2 SE NORRIS CO-OP OBSERVER (MADM8)", "elevation": "4846 feet", "report_time_utc": "2021-12-31 22:30", "amount": "2.000", "units": "in", "duration": "24.000", "durationunits": "hours"}}, {"type": "Feature", "geometry": {"type": "Point", "coordinates": [-112.042, 46.6218]}, "properties": {"name": "MT LEWIS AND CLARK 2 NW HELENA COCORAHS COCORAHS (X4661120)", "elevation": "3829 feet", "report_time_utc": "2021-12-31 17:00", "amount": "1.000", "units": "in", "duration": "24.000", "durationunits": "hours"}}, {"type": "Feature", "geometry": {"type": "Point", "coordinates": [-111.294, 47.4075]}, "properties": {"name": "MT CASCADE GREAT FALLS 6.7 S COCORAHS (X4741112)", "elevation": "3360 feet", "report_time_utc": "2021-12-31 15:00", "amount": "1.700", "units": "in", "duration": "24.000", "durationunits": "hours"}}, {"type": "Feature", "geometry": {"type": "Point", "coordinates": [-111.737, 47.4773]}, "properties": {"name": "MT CASCADE SUN RIVER 4S COOP CO-OP OBSERVER (SNRM8)", "elevation": "3612 feet", "report_time_utc": "2021-12-31 14:00", "amount": "1.100", "units": "in", "duration": "24.000", "durationunits": "hours"}}, {"type": "Feature", "geometry": {"type": "Point", "coordinates": [-111.858, 47.587]}, "properties": {"name": "MT CASCADE FAIRFIELD 6.0 ESE COCORAHS (X4751118)", "elevation": "4055 feet", "report_time_utc": "2021-12-31 14:00", "amount": "1.000", "units": "in", "duration": "24.000", "durationunits": "hours"}}, {"type": "Feature", "geometry": {"type": "Point", "coordinates": [-111.881, 47.661]}, "properties": {"name": "MT TETON FAIRFIELD 5.6 NE COCORAHS (X4761118)", "elevation": "3868 feet", "report_time_utc": "2021-12-31 14:00", "amount": "1.000", "units": "in", "duration": "24.000", "durationunits": "hours"}}, {"type": "Feature", "geometry": {"type": "Point", "coordinates": [-111.939, 47.6825]}, "properties": {"name": "MT TETON FAIRFIELD 5.0 NNE COCORAHS (X4761119)", "elevation": "3898 feet", "report_time_utc": "2021-12-31 14:00", "amount": "1.000", "units": "in", "duration": "24.000", "durationunits": "hours"}}, {"type": "Feature", "geometry": {"type": "Point", "coordinates": [-111.645, 47.8616]}, "properties": {"name": "MT TETON 3 ENE DUTTON COCORAHS COCORAHS (X4781116)", "elevation": "3547 feet", "report_time_utc": "2021-12-31 13:00", "amount": "1.000", "units": "in", "duration": "24.000", "durationunits": "hours"}}, {"type": "Feature", "geometry": {"type": "Point", "coordinates": [-112.292, 47.9262]}, "properties": {"name": "MT TETON BYNUM 4 SSE CO-OP OBSERVER (BYNM8)", "elevation": "4039 feet", "report_time_utc": "2021-12-31 13:30", "amount": "1.000", "units": "in", "duration": "24.000", "durationunits": "hours"}}, {"type": "Feature", "geometry": {"type": "Point", "coordinates": [-111.26, 48.075]}, "properties": {"name": "MT CHOUTEAU BRADY 27 ENE (THE KNEES) COOP CO-OP OBSERV (KNEM8)", "elevation": "3310 feet", "report_time_utc": "2021-12-31 13:00", "amount": "1.100", "units": "in", "duration": "24.000", "durationunits": "hours"}}, {"type": "Feature", "geometry": {"type": "Point", "coordinates": [-96.9961, 45.6708]}, "properties": {"name": "SISSETON MUNICIPAL AP", "elevation": "1158 feet", "report_time_utc": "2022-01-01 00:00", "amount": "0.000", "units": "in", "duration": "24.000", "durationunits": "hours"}}, {"type": "Feature", "geometry": {"type": "Point", "coordinates": [-96.9961, 45.6708]}, "properties": {"name": "SISSETON MUNICIPAL AP", "elevation": "1158 feet", "report_time_utc": "2021-12-31 12:00", "amount": "0.000", "units": "in", "duration": "24.000", "durationunits": "hours"}}, {"type": "Feature", "geometry": {"type": "Point", "coordinates": [-83.6933, 42.2416]}, "properties": {"name": "ANN ARBOR SE", "elevation": "833 feet", "report_time_utc": "2021-12-31 12:30", "amount": "0.000", "units": "in", "duration": "24.000", "durationunits": "hours"}}, {"type": "Feature", "geometry": {"type": "Point", "coordinates": [-94.1594, 35.0237]}, "properties": {"name": "ABBOTT", "elevation": "686 feet", "report_time_utc": "2021-12-31 15:00", "amount": "0.000", "units": "in", "duration": "24.000", "durationunits": "hours"}}, {"type": "Feature", "geometry": {"type": "Point", "coordinates": [-98.4141, 45.4553]}, "properties": {"name": "ABERDEEN 3E", "elevation": "1296 feet", "report_time_utc": "2022-01-01 00:00", "amount": "0.000", "units": "in", "duration": "6.000", "durationunits": "hours"}}, {"type": "Feature", "geometry": {"type": "Point", "coordinates": [-98.4141, 45.4553]}, "properties": {"name": "ABERDEEN 3E", "elevation": "1296 feet", "report_time_utc": "2021-12-31 18:00", "amount": "0.000", "units": "in", "duration": "6.000", "durationunits": "hours"}}, {"type": "Feature", "geometry": {"type": "Point", "coordinates": [-98.4141, 45.4553]}, "properties": {"name": "ABERDEEN 3E", "elevation": "1296 feet", "report_time_utc": "2021-12-31 12:00", "amount": "0.100", "units": "in", "duration": "24.000", "durationunits": "hours"}}, {"type": "Feature", "geometry": {"type": "Point", "coordinates": [-98.4141, 45.4553]}, "properties": {"name": "ABERDEEN 3E", "elevation": "1296 feet", "report_time_utc": "2021-12-31 12:00", "amount": "0.100", "units": "in", "duration": "6.000", "durationunits": "hours"}}, {"type": "Feature", "geometry": {"type": "Point", "coordinates": [-98.4141, 45.4553]}, "properties": {"name": "ABERDEEN 3E", "elevation": "1296 feet", "report_time_utc": "2021-12-31 05:58", "amount": "0.000", "units": "in", "duration": "24.000", "durationunits": "hours"}}, {"type": "Feature", "geometry": {"type": "Point", "coordinates": [-98.4141, 45.4553]}, "properties": {"name": "ABERDEEN 3E", "elevation": "1296 feet", "report_time_utc": "2021-12-31 05:58", "amount": "0.000", "units": "in", "duration": "6.000", "durationunits": "hours"}}, {"type": "Feature", "geometry": {"type": "Point", "coordinates": [-101.8507, 33.8357]}, "properties": {"name": "ABERNATHY", "elevation": "3353 feet", "report_time_utc": "2021-12-31 14:40", "amount": "0.000", "units": "in", "duration": "24.000", "durationunits": "hours"}}, {"type": "Feature", "geometry": {"type": "Point", "coordinates": [-87.8119, 45.4825]}, "properties": {"name": "AMBERG 9 E", "elevation": "735 feet", "report_time_utc": "2021-12-31 12:35", "amount": "0.100", "units": "in", "duration": "24.000", "durationunits": "hours"}}, {"type": "Feature", "geometry": {"type": "Point", "coordinates": [-81.9653, 36.6672]}, "properties": {"name": "ABINGDON 3S", "elevation": "1926 feet", "report_time_utc": "2021-12-31 11:00", "amount": "0.000", "units": "in", "duration": "24.000", "durationunits": "hours"}}, {"type": "Feature", "geometry": {"type": "Point", "coordinates": [-71.9359, 42.6617]}, "properties": {"name": "ASHBURNHAM NORTH", "elevation": "1138 feet", "report_time_utc": "2021-12-31 12:00", "amount": "0.000", "units": "in", "duration": "24.000", "durationunits": "hours"}}, {"type": "Feature", "geometry": {"type": "Point", "coordinates": [-78.2152, 43.2633]}, "properties": {"name": "ALBION", "elevation": "472 feet", "report_time_utc": "2021-12-31 23:30", "amount": "0.000", "units": "in", "duration": "24.000", "durationunits": "hours"}}, {"type": "Feature", "geometry": {"type": "Point", "coordinates": [-106.6217, 35.0369]}, "properties": {"name": "ALBUQUERQUE, NM", "elevation": "5322 feet", "report_time_utc": "2021-12-31 14:00", "amount": "0.000", "units": "in", "duration": "24.000", "durationunits": "hours"}}, {"type": "Feature", "geometry": {"type": "Point", "coordinates": [-98.4128, 45.4558]}, "properties": {"name": "ABERDEEN, SD", "elevation": "1299 feet", "report_time_utc": "2022-01-01 00:00", "amount": "0.100", "units": "in", "duration": "24.000", "durationunits": "hours"}}, {"type": "Feature", "geometry": {"type": "Point", "coordinates": [-98.4128, 45.4558]}, "properties": {"name": "ABERDEEN, SD", "elevation": "1299 feet", "report_time_utc": "2021-12-31 12:00", "amount": "0.300", "units": "in", "duration": "24.000", "durationunits": "hours"}}, {"type": "Feature", "geometry": {"type": "Point", "coordinates": [-114.4781, 47.0036]}, "properties": {"name": "ALBERTON", "elevation": "3051 feet", "report_time_utc": "2021-12-31 15:00", "amount": "2.500", "units": "in", "duration": "24.000", "durationunits": "hours"}}, {"type": "Feature", "geometry": {"type": "Point", "coordinates": [-106.6833, 35.0333]}, "properties": {"name": "VALLEY", "elevation": "4934 feet", "report_time_utc": "2021-12-31 07:00", "amount": "0.000", "units": "in", "duration": "24.000", "durationunits": "hours"}}, {"type": "Feature", "geometry": {"type": "Point", "coordinates": [-79.4072, 40.1347]}, "properties": {"name": "DONEGAL 2 NW", "elevation": "1798 feet", "report_time_utc": "2021-12-31 12:00", "amount": "0.000", "units": "in", "duration": "24.000", "durationunits": "hours"}}, {"type": "Feature", "geometry": {"type": "Point", "coordinates": [-99.0631, 43.4892]}, "properties": {"name": "ACADEMY,SD", "elevation": "1683 feet", "report_time_utc": "2021-12-31 15:00", "amount": "0.000", "units": "in", "duration": "24.000", "durationunits": "hours"}}, {"type": "Feature", "geometry": {"type": "Point", "coordinates": [-98.42696, 40.59488]}, "properties": {"name": "HASTINGS 2.1 WNW, NE", "elevation": "1952 feet", "report_time_utc": "2021-12-31 13:00", "amount": "0.000", "units": "in", "duration": "24.000", "durationunits": "hours"}}, {"type": "Feature", "geometry": {"type": "Point", "coordinates": [-98.37167, 40.57999]}, "properties": {"name": "HASTINGS 1.0 ESE, NE", "elevation": "1926 feet", "report_time_utc": "2021-12-31 13:00", "amount": "0.000", "units": "in", "duration": "24.000", "durationunits": "hours"}}, {"type": "Feature", "geometry": {"type": "Point", "coordinates": [-105.5747, 41.2969]}, "properties": {"name": "LARAMIE 1SE", "elevation": "7208 feet", "report_time_utc": "2021-12-31 14:00", "amount": "0.300", "units": "in", "duration": "24.000", "durationunits": "hours"}}, {"type": "Feature", "geometry": {"type": "Point", "coordinates": [-149.9839, 61.1561]}, "properties": {"name": "ANCHORAGE, AK", "elevation": "128 feet", "report_time_utc": "2021-12-31 09:00", "amount": "0.100", "units": "in", "duration": "24.000", "durationunits": "hours"}}, {"type": "Feature", "geometry": {"type": "Point", "coordinates": [-110.9216, 42.733]}, "properties": {"name": "AFTON - COOP", "elevation": "6289 feet", "report_time_utc": "2021-12-31 15:00", "amount": "2.300", "units": "in", "duration": "24.000", "durationunits": "hours"}}, {"type": "Feature", "geometry": {"type": "Point", "coordinates": [-103.7347, 42.4244]}, "properties": {"name": "AGATE,NE", "elevation": "4393 feet", "report_time_utc": "2021-12-31 23:00", "amount": "0.300", "units": "in", "duration": "24.000", "durationunits": "hours"}}, {"type": "Feature", "geometry": {"type": "Point", "coordinates": [-82.5344, 42.6255]}, "properties": {"name": "ALGONAC", "elevation": "597 feet", "report_time_utc": "2021-12-31 13:00", "amount": "0.001", "units": "in", "duration": "24.000", "durationunits": "hours"}}, {"type": "Feature", "geometry": {"type": "Point", "coordinates": [-97.7664, 30.4144]}, "properties": {"name": "AUSTIN GREAT HILLS", "elevation": "889 feet", "report_time_utc": "2021-12-31 13:00", "amount": "0.000", "units": "in", "duration": "24.000", "durationunits": "hours"}}, {"type": "Feature", "geometry": {"type": "Point", "coordinates": [-97.7664, 30.4144]}, "properties": {"name": "AUSTIN GREAT HILLS", "elevation": "889 feet", "report_time_utc": "2021-12-31 13:00", "amount": "0.000", "units": "in", "duration": "6.000", "durationunits": "hours"}}, {"type": "Feature", "geometry": {"type": "Point", "coordinates": [-88.9038, 45.6736]}, "properties": {"name": "ARGONNE-1.5 NW", "elevation": "1677 feet", "report_time_utc": "2021-12-31 13:31", "amount": "0.100", "units": "in", "duration": "24.000", "durationunits": "hours"}}, {"type": "Feature", "geometry": {"type": "Point", "coordinates": [-104.9504, 37.3169]}, "properties": {"name": "AGUILAR 18 WSW", "elevation": "8642 feet", "report_time_utc": "2021-12-31 14:00", "amount": "0.001", "units": "in", "duration": "24.000", "durationunits": "hours"}}, {"type": "Feature", "geometry": {"type": "Point", "coordinates": [-96.9705, 37.6983]}, "properties": {"name": "AUGUSTA", "elevation": "1306 feet", "report_time_utc": "2021-12-31 12:30", "amount": "0.000", "units": "in", "duration": "24.000", "durationunits": "hours"}}, {"type": "Feature", "geometry": {"type": "Point", "coordinates": [-84.0127, 38.7699]}, "properties": {"name": "AUGUSTA 2", "elevation": "499 feet", "report_time_utc": "2021-12-31 12:30", "amount": "0.000", "units": "in", "duration": "24.000", "durationunits": "hours"}}, {"type": "Feature", "geometry": {"type": "Point", "coordinates": [-135.4663, 59.2317]}, "properties": {"name": "HAINES #2", "elevation": "108 feet", "report_time_utc": "2021-12-31 17:00", "amount": "2.000", "units": "in", "duration": "24.000", "durationunits": "hours"}}, {"type": "Feature", "geometry": {"type": "Point", "coordinates": [-102.1611, 38.6842]}, "properties": {"name": "ARAPAHOE 12S", "elevation": "4078 feet", "report_time_utc": "2021-12-31 14:00", "amount": "0.000", "units": "in", "duration": "24.000", "durationunits": "hours"}}, {"type": "Feature", "geometry": {"type": "Point", "coordinates": [-72.5375, 42.3861]}, "properties": {"name": "AMHERST", "elevation": "154 feet", "report_time_utc": "2021-12-31 12:15", "amount": "0.000", "units": "in", "duration": "24.000", "durationunits": "hours"}}, {"type": "Feature", "geometry": {"type": "Point", "coordinates": [-134.5694, 58.4002]}, "properties": {"name": "JUNEAU FORECAST OFFICE (NWS)", "elevation": "62 feet", "report_time_utc": "2022-01-01 00:00", "amount": "0.400", "units": "in", "duration": "6.000", "durationunits": "hours"}}, {"type": "Feature", "geometry": {"type": "Point", "coordinates": [-134.5694, 58.4002]}, "properties": {"name": "JUNEAU FORECAST OFFICE (NWS)", "elevation": "62 feet", "report_time_utc": "2021-12-31 18:00", "amount": "1.000", "units": "in", "duration": "6.000", "durationunits": "hours"}}, {"type": "Feature", "geometry": {"type": "Point", "coordinates": [-134.5694, 58.4002]}, "properties": {"name": "JUNEAU FORECAST OFFICE (NWS)", "elevation": "62 feet", "report_time_utc": "2021-12-31 12:00", "amount": "0.000", "units": "in", "duration": "6.000", "durationunits": "hours"}}, {"type": "Feature", "geometry": {"type": "Point", "coordinates": [-134.5694, 58.4002]}, "properties": {"name": "JUNEAU FORECAST OFFICE (NWS)", "elevation": "62 feet", "report_time_utc": "2021-12-31 08:58", "amount": "0.000", "units": "in", "duration": "24.000", "durationunits": "hours"}}, {"type": "Feature", "geometry": {"type": "Point", "coordinates": [-134.5694, 58.4002]}, "properties": {"name": "JUNEAU FORECAST OFFICE (NWS)", "elevation": "62 feet", "report_time_utc": "2021-12-31 06:00", "amount": "0.000", "units": "in", "duration": "6.000", "durationunits": "hours"}}, {"type": "Feature", "geometry": {"type": "Point", "coordinates": [-149.9346, 61.1529]}, "properties": {"name": "ANCHORAGE 4.7 SSW, AK", "elevation": "112 feet", "report_time_utc": "2021-12-31 16:00", "amount": "0.200", "units": "in", "duration": "24.000", "durationunits": "hours"}}, {"type": "Feature", "geometry": {"type": "Point", "coordinates": [-149.84599, 61.11128]}, "properties": {"name": "ANCHORAGE 7.6 SSE, AK", "elevation": "217 feet", "report_time_utc": "2021-12-31 18:00", "amount": "0.100", "units": "in", "duration": "24.000", "durationunits": "hours"}}, {"type": "Feature", "geometry": {"type": "Point", "coordinates": [-147.6304, 64.9186]}, "properties": {"name": "FAIRBANKS 5.7 N, AK", "elevation": "981 feet", "report_time_utc": "2021-12-31 16:00", "amount": "0.001", "units": "in", "duration": "24.000", "durationunits": "hours"}}, {"type": "Feature", "geometry": {"type": "Point", "coordinates": [-150.9138, 60.49019]}, "properties": {"name": "SOLDOTNA 5.1 E, AK", "elevation": "285 feet", "report_time_utc": "2021-12-31 18:30", "amount": "2.300", "units": "in", "duration": "24.000", "durationunits": "hours"}}, {"type": "Feature", "geometry": {"type": "Point", "coordinates": [-149.1258, 61.61847]}, "properties": {"name": "PALMER 1.7 WNW, AK", "elevation": "427 feet", "report_time_utc": "2021-12-31 16:30", "amount": "0.100", "units": "in", "duration": "24.000", "durationunits": "hours"}}, {"type": "Feature", "geometry": {"type": "Point", "coordinates": [-150.0731, 62.22725]}, "properties": {"name": "TALKEETNA 7.6 S, AK", "elevation": "377 feet", "report_time_utc": "2021-12-31 16:00", "amount": "6.600", "units": "in", "duration": "24.000", "durationunits": "hours"}}, {"type": "Feature", "geometry": {"type": "Point", "coordinates": [-133.61775, 55.95526]}, "properties": {"name": "EDNA BAY 1.3 E, AK", "elevation": "36 feet", "report_time_utc": "2021-12-31 16:00", "amount": "0.000", "units": "in", "duration": "24.000", "durationunits": "hours"}}, {"type": "Feature", "geometry": {"type": "Point", "coordinates": [-97.0399, 37.0631]}, "properties": {"name": "ARKANSAS CITY", "elevation": "1122 feet", "report_time_utc": "2021-12-31 12:05", "amount": "0.000", "units": "in", "duration": "24.000", "durationunits": "hours"}}, {"type": "Feature", "geometry": {"type": "Point", "coordinates": [-87.68038, 30.26681]}, "properties": {"name": "LEARNING CAMPUS-GULF SHORES 1.3 E, AL", "elevation": "49 feet", "report_time_utc": "2021-12-31 15:00", "amount": "0.000", "units": "in", "duration": "24.000", "durationunits": "hours"}}, {"type": "Feature", "geometry": {"type": "Point", "coordinates": [-87.97845, 30.23225]}, "properties": {"name": "FORT MORGAN 2.5 E, AL", "elevation": "3 feet", "report_time_utc": "2021-12-31 14:00", "amount": "0.000", "units": "in", "duration": "24.000", "durationunits": "hours"}}, {"type": "Feature", "geometry": {"type": "Point", "coordinates": [-87.70151, 30.40507]}, "properties": {"name": "FOLEY 1.0 W, AL", "elevation": "89 feet", "report_time_utc": "2021-12-31 13:00", "amount": "0.000", "units": "in", "duration": "24.000", "durationunits": "hours"}}, {"type": "Feature", "geometry": {"type": "Point", "coordinates": [-87.7578, 30.62162]}, "properties": {"name": "LOXLEY 0.4 SSW, AL", "elevation": "194 feet", "report_time_utc": "2021-12-31 11:30", "amount": "0.000", "units": "in", "duration": "24.000", "durationunits": "hours"}}, {"type": "Feature", "geometry": {"type": "Point", "coordinates": [-87.9076, 30.6424]}, "properties": {"name": "DAPHNE 1.2 NNW, AL", "elevation": "138 feet", "report_time_utc": "2021-12-31 13:00", "amount": "0.000", "units": "in", "duration": "24.000", "durationunits": "hours"}}, {"type": "Feature", "geometry": {"type": "Point", "coordinates": [-87.6975, 30.37889]}, "properties": {"name": "FOLEY 2.0 SSW, AL", "elevation": "72 feet", "report_time_utc": "2021-12-31 13:00", "amount": "0.000", "units": "in", "duration": "24.000", "durationunits": "hours"}}, {"type": "Feature", "geometry": {"type": "Point", "coordinates": [-87.7848, 30.34392]}, "properties": {"name": "FOLEY 7.4 SW, AL", "elevation": "46 feet", "report_time_utc": "2021-12-31 14:00", "amount": "0.000", "units": "in", "duration": "24.000", "durationunits": "hours"}}, {"type": "Feature", "geometry": {"type": "Point", "coordinates": [-87.91141, 30.48308]}, "properties": {"name": "POINT CLEAR 0.6 SW, AL", "elevation": "49 feet", "report_time_utc": "2021-12-31 14:30", "amount": "0.000", "units": "in", "duration": "24.000", "durationunits": "hours"}}, {"type": "Feature", "geometry": {"type": "Point", "coordinates": [-87.733, 30.25135]}, "properties": {"name": "GULF SHORES 2.3 SW, AL", "elevation": "20 feet", "report_time_utc": "2021-12-31 13:00", "amount": "0.000", "units": "in", "duration": "24.000", "durationunits": "hours"}}, {"type": "Feature", "geometry": {"type": "Point", "coordinates": [-87.78364, 30.23488]}, "properties": {"name": "GULF SHORES 5.5 WSW, AL", "elevation": "16 feet", "report_time_utc": "2021-12-31 22:10", "amount": "0.000", "units": "in", "duration": "24.000", "durationunits": "hours"}}, {"type": "Feature", "geometry": {"type": "Point", "coordinates": [-87.7686, 31.8403]}, "properties": {"name": "THOMASVILLE 5.2 SSW, AL", "elevation": "410 feet", "report_time_utc": "2021-12-31 14:00", "amount": "0.000", "units": "in", "duration": "24.000", "durationunits": "hours"}}, {"type": "Feature", "geometry": {"type": "Point", "coordinates": [-87.854, 31.64466]}, "properties": {"name": "GROVE HILL 6.1 SW, AL", "elevation": "259 feet", "report_time_utc": "2021-12-31 13:00", "amount": "0.000", "units": "in", "duration": "24.000", "durationunits": "hours"}}, {"type": "Feature", "geometry": {"type": "Point", "coordinates": [-86.21, 34.73452]}, "properties": {"name": "WOODVILLE 8.0 NNE, AL", "elevation": "1526 feet", "report_time_utc": "2021-12-31 13:00", "amount": "0.000", "units": "in", "duration": "24.000", "durationunits": "hours"}}, {"type": "Feature", "geometry": {"type": "Point", "coordinates": [-87.5697, 34.83505]}, "properties": {"name": "FLORENCE 5.4 E, AL", "elevation": "620 feet", "report_time_utc": "2021-12-31 15:00", "amount": "0.000", "units": "in", "duration": "24.000", "durationunits": "hours"}}, {"type": "Feature", "geometry": {"type": "Point", "coordinates": [-87.70374, 34.88225]}, "properties": {"name": "FLORENCE 4.4 NNW, AL", "elevation": "636 feet", "report_time_utc": "2021-12-31 13:00", "amount": "0.000", "units": "in", "duration": "24.000", "durationunits": "hours"}}, {"type": "Feature", "geometry": {"type": "Point", "coordinates": [-87.8829, 34.91294]}, "properties": {"name": "CLOVERDALE 6.6 WSW, AL", "elevation": "692 feet", "report_time_utc": "2021-12-31 13:00", "amount": "0.000", "units": "in", "duration": "24.000", "durationunits": "hours"}}, {"type": "Feature", "geometry": {"type": "Point", "coordinates": [-86.9987, 34.84899]}, "properties": {"name": "ATHENS 4.9 NNW, AL", "elevation": "764 feet", "report_time_utc": "2021-12-31 13:00", "amount": "0.000", "units": "in", "duration": "24.000", "durationunits": "hours"}}, {"type": "Feature", "geometry": {"type": "Point", "coordinates": [-87.00158, 34.7751]}, "properties": {"name": "ATHENS 2.5 WSW, AL", "elevation": "722 feet", "report_time_utc": "2021-12-31 12:45", "amount": "0.000", "units": "in", "duration": "24.000", "durationunits": "hours"}}, {"type": "Feature", "geometry": {"type": "Point", "coordinates": [-88.18182, 30.73635]}, "properties": {"name": "MOBILE 5.0 WNW, AL", "elevation": "161 feet", "report_time_utc": "2021-12-31 13:00", "amount": "0.000", "units": "in", "duration": "24.000", "durationunits": "hours"}}, {"type": "Feature", "geometry": {"type": "Point", "coordinates": [-88.13676, 30.25377]}, "properties": {"name": "DAUPHIN ISLAND 2.2 E, AL", "elevation": "16 feet", "report_time_utc": "2021-12-31 13:00", "amount": "0.000", "units": "in", "duration": "24.000", "durationunits": "hours"}}, {"type": "Feature", "geometry": {"type": "Point", "coordinates": [-88.0674, 30.6865]}, "properties": {"name": "MOBILE 1.4 ENE, AL", "elevation": "49 feet", "report_time_utc": "2021-12-31 13:00", "amount": "0.000", "units": "in", "duration": "24.000", "durationunits": "hours"}}, {"type": "Feature", "geometry": {"type": "Point", "coordinates": [-88.10013, 30.56627]}, "properties": {"name": "THEODORE 4.8 ENE, AL", "elevation": "33 feet", "report_time_utc": "2021-12-31 13:00", "amount": "0.000", "units": "in", "duration": "24.000", "durationunits": "hours"}}, {"type": "Feature", "geometry": {"type": "Point", "coordinates": [-86.77048, 34.81281]}, "properties": {"name": "HARVEST 3.2 SSW, AL", "elevation": "833 feet", "report_time_utc": "2021-12-31 13:15", "amount": "0.000", "units": "in", "duration": "24.000", "durationunits": "hours"}}, {"type": "Feature", "geometry": {"type": "Point", "coordinates": [-86.69659, 34.73937]}, "properties": {"name": "HUNTSVILLE 4.5 WNW, AL", "elevation": "682 feet", "report_time_utc": "2021-12-31 13:00", "amount": "0.000", "units": "in", "duration": "24.000", "durationunits": "hours"}}, {"type": "Feature", "geometry": {"type": "Point", "coordinates": [-86.5813, 34.5999]}, "properties": {"name": "HUNTSVILLE 7.9 SSE, AL", "elevation": "581 feet", "report_time_utc": "2021-12-31 11:00", "amount": "0.000", "units": "in", "duration": "24.000", "durationunits": "hours"}}, {"type": "Feature", "geometry": {"type": "Point", "coordinates": [-86.6328, 34.4907]}, "properties": {"name": "LACEY'S SPRING 3.4 SSW, AL", "elevation": "1289 feet", "report_time_utc": "2021-12-31 13:00", "amount": "0.000", "units": "in", "duration": "24.000", "durationunits": "hours"}}, {"type": "Feature", "geometry": {"type": "Point", "coordinates": [-85.15651, 32.33029]}, "properties": {"name": "SEALE 2.4 NNE, AL", "elevation": "469 feet", "report_time_utc": "2021-12-31 13:00", "amount": "0.000", "units": "in", "duration": "24.000", "durationunits": "hours"}}, {"type": "Feature", "geometry": {"type": "Point", "coordinates": [-86.4633, 33.58338]}, "properties": {"name": "MOODY 2.0 ESE, AL", "elevation": "722 feet", "report_time_utc": "2021-12-31 14:00", "amount": "0.000", "units": "in", "duration": "24.000", "durationunits": "hours"}}, {"type": "Feature", "geometry": {"type": "Point", "coordinates": [-87.22087, 33.82447]}, "properties": {"name": "JASPER 3.4 SE, AL", "elevation": "413 feet", "report_time_utc": "2021-12-31 20:00", "amount": "0.000", "units": "in", "duration": "24.000", "durationunits": "hours"}}, {"type": "Feature", "geometry": {"type": "Point", "coordinates": [-87.22087, 33.82447]}, "properties": {"name": "JASPER 3.4 SE, AL", "elevation": "413 feet", "report_time_utc": "2021-12-31 17:00", "amount": "0.000", "units": "in", "duration": "24.000", "durationunits": "hours"}}, {"type": "Feature", "geometry": {"type": "Point", "coordinates": [-87.22087, 33.82447]}, "properties": {"name": "JASPER 3.4 SE, AL", "elevation": "413 feet", "report_time_utc": "2021-12-31 08:15", "amount": "0.000", "units": "in", "duration": "24.000", "durationunits": "hours"}}, {"type": "Feature", "geometry": {"type": "Point", "coordinates": [-87.96, 31.50952]}, "properties": {"name": "JACKSON 4.3 WSW, AL", "elevation": "121 feet", "report_time_utc": "2021-12-31 13:00", "amount": "0.000", "units": "in", "duration": "24.000", "durationunits": "hours"}}, {"type": "Feature", "geometry": {"type": "Point", "coordinates": [-73.8019, 42.7492]}, "properties": {"name": "ALBANY INTL AP", "elevation": "243 feet", "report_time_utc": "2021-12-31 23:51", "amount": "0.000", "units": "in", "duration": "24.000", "durationunits": "hours"}}, {"type": "Feature", "geometry": {"type": "Point", "coordinates": [-73.8019, 42.7492]}, "properties": {"name": "ALBANY INTL AP", "elevation": "243 feet", "report_time_utc": "2021-12-31 12:05", "amount": "0.000", "units": "in", "duration": "24.000", "durationunits": "hours"}}, {"type": "Feature", "geometry": {"type": "Point", "coordinates": [-97.9833, 41.6667]}, "properties": {"name": "ALBION,NE", "elevation": "1772 feet", "report_time_utc": "2021-12-31 13:30", "amount": "0.000", "units": "in", "duration": "24.000", "durationunits": "hours"}}, {"type": "Feature", "geometry": {"type": "Point", "coordinates": [-77.8986, 36.9397]}, "properties": {"name": "ALBERTA,VA", "elevation": "390 feet", "report_time_utc": "2021-12-31 13:00", "amount": "0.000", "units": "in", "duration": "24.000", "durationunits": "hours"}}, {"type": "Feature", "geometry": {"type": "Point", "coordinates": [-91.0735, 35.9294]}, "properties": {"name": "ALICIA", "elevation": "243 feet", "report_time_utc": "2021-12-31 13:50", "amount": "0.000", "units": "in", "duration": "24.000", "durationunits": "hours"}}, {"type": "Feature", "geometry": {"type": "Point", "coordinates": [-80.6592, 37.7272]}, "properties": {"name": "ALDERSON", "elevation": "1539 feet", "report_time_utc": "2021-12-31 13:00", "amount": "0.000", "units": "in", "duration": "24.000", "durationunits": "hours"}}, {"type": "Feature", "geometry": {"type": "Point", "coordinates": [-90.7477, 41.1962]}, "properties": {"name": "ALEDO", "elevation": "738 feet", "report_time_utc": "2021-12-31 13:00", "amount": "0.000", "units": "in", "duration": "24.000", "durationunits": "hours"}}, {"type": "Feature", "geometry": {"type": "Point", "coordinates": [-115.746, 37.6467]}, "properties": {"name": "RACHEL", "elevation": "4829 feet", "report_time_utc": "2021-12-31 16:00", "amount": "0.000", "units": "in", "duration": "24.000", "durationunits": "hours"}}, {"type": "Feature", "geometry": {"type": "Point", "coordinates": [-77.7664, 42.2798]}, "properties": {"name": "ALFRED", "elevation": "1932 feet", "report_time_utc": "2021-12-31 12:00", "amount": "0.000", "units": "in", "duration": "24.000", "durationunits": "hours"}}, {"type": "Feature", "geometry": {"type": "Point", "coordinates": [-117.0333, 48.1822]}, "properties": {"name": "PEND OREILLE RIVER BELOW ALBENI FALLS DAM", "elevation": "2034 feet", "report_time_utc": "2021-12-31 13:59", "amount": "0.001", "units": "in", "duration": "24.000", "durationunits": "hours"}}, {"type": "Feature", "geometry": {"type": "Point", "coordinates": [-94.3061, 43.0667]}, "properties": {"name": "ALGONA,IA", "elevation": "1220 feet", "report_time_utc": "2021-12-31 12:56", "amount": "0.000", "units": "in", "duration": "24.000", "durationunits": "hours"}}, {"type": "Feature", "geometry": {"type": "Point", "coordinates": [-88.3522, 43.423]}, "properties": {"name": "ALLENTON WWTP", "elevation": "971 feet", "report_time_utc": "2021-12-31 14:06", "amount": "0.000", "units": "in", "duration": "24.000", "durationunits": "hours"}}, {"type": "Feature", "geometry": {"type": "Point", "coordinates": [-84.6667, 43.3833]}, "properties": {"name": "ALMA,MI", "elevation": "764 feet", "report_time_utc": "2021-12-31 12:00", "amount": "0.000", "units": "in", "duration": "24.000", "durationunits": "hours"}}, {"type": "Feature", "geometry": {"type": "Point", "coordinates": [-110.2985, 40.3669]}, "properties": {"name": "ALTAMONT", "elevation": "6460 feet", "report_time_utc": "2021-12-31 02:00", "amount": "0.000", "units": "in", "duration": "24.000", "durationunits": "hours"}}, {"type": "Feature", "geometry": {"type": "Point", "coordinates": [-91.9194, 44.3271]}, "properties": {"name": "ALMA DAM 4", "elevation": "676 feet", "report_time_utc": "2021-12-31 14:00", "amount": "0.000", "units": "in", "duration": "24.000", "durationunits": "hours"}}, {"type": "Feature", "geometry": {"type": "Point", "coordinates": [-92.4, 42.5569]}, "properties": {"name": "WATERLOO MUNICIPAL AIRPORT", "elevation": "869 feet", "report_time_utc": "2022-01-01 00:00", "amount": "0.000", "units": "in", "duration": "24.000", "durationunits": "hours"}}, {"type": "Feature", "geometry": {"type": "Point", "coordinates": [-92.4, 42.5569]}, "properties": {"name": "WATERLOO MUNICIPAL AIRPORT", "elevation": "869 feet", "report_time_utc": "2021-12-31 12:00", "amount": "0.001", "units": "in", "duration": "24.000", "durationunits": "hours"}}, {"type": "Feature", "geometry": {"type": "Point", "coordinates": [-78.3694, 40.5267]}, "properties": {"name": "ALTOONA 2", "elevation": "1280 feet", "report_time_utc": "2021-12-31 05:00", "amount": "0.000", "units": "in", "duration": "24.000", "durationunits": "hours"}}, {"type": "Feature", "geometry": {"type": "Point", "coordinates": [-85.1582, 39.5739]}, "properties": {"name": "ALPINE 2 NE", "elevation": "771 feet", "report_time_utc": "2021-12-31 12:00", "amount": "0.000", "units": "in", "duration": "24.000", "durationunits": "hours"}}, {"type": "Feature", "geometry": {"type": "Point", "coordinates": [-83.5597, 45.0311]}, "properties": {"name": "SNOW PAID OBSERVER FOR KAPN", "elevation": "699 feet", "report_time_utc": "2021-12-31 12:00", "amount": "0.001", "units": "in", "duration": "24.000", "durationunits": "hours"}}, {"type": "Feature", "geometry": {"type": "Point", "coordinates": [-83.5597, 45.0311]}, "properties": {"name": "SNOW PAID OBSERVER FOR KAPN", "elevation": "699 feet", "report_time_utc": "2021-12-31 12:00", "amount": "0.001", "units": "in", "duration": "6.000", "durationunits": "hours"}}, {"type": "Feature", "geometry": {"type": "Point", "coordinates": [-93.365, 40.7067]}, "properties": {"name": "ALLERTON,IA", "elevation": "1106 feet", "report_time_utc": "2021-12-31 13:00", "amount": "0.000", "units": "in", "duration": "24.000", "durationunits": "hours"}}, {"type": "Feature", "geometry": {"type": "Point", "coordinates": [-105.8664, 37.4353]}, "properties": {"name": "SAN LUIS VALLEY REGIONAL", "elevation": "7543 feet", "report_time_utc": "2022-01-01 00:00", "amount": "0.000", "units": "in", "duration": "24.000", "durationunits": "hours"}}, {"type": "Feature", "geometry": {"type": "Point", "coordinates": [-105.8664, 37.4353]}, "properties": {"name": "SAN LUIS VALLEY REGIONAL", "elevation": "7543 feet", "report_time_utc": "2021-12-31 12:00", "amount": "0.000", "units": "in", "duration": "24.000", "durationunits": "hours"}}, {"type": "Feature", "geometry": {"type": "Point", "coordinates": [-112.4819, 37.4402]}, "properties": {"name": "ALTON", "elevation": "7106 feet", "report_time_utc": "2022-01-01 00:00", "amount": "7.000", "units": "in", "duration": "24.000", "durationunits": "hours"}}, {"type": "Feature", "geometry": {"type": "Point", "coordinates": [-111.0338, 43.7727]}, "properties": {"name": "ALTA - COOP", "elevation": "6450 feet", "report_time_utc": "2021-12-31 04:00", "amount": "4.000", "units": "in", "duration": "24.000", "durationunits": "hours"}}, {"type": "Feature", "geometry": {"type": "Point", "coordinates": [-96.4892, 38.8663]}, "properties": {"name": "ALTA VISTA", "elevation": "1467 feet", "report_time_utc": "2021-12-31 13:00", "amount": "0.000", "units": "in", "duration": "24.000", "durationunits": "hours"}}, {"type": "Feature", "geometry": {"type": "Point", "coordinates": [-92.3755, 42.5313]}, "properties": {"name": "WATERLOO SNOW", "elevation": "863 feet", "report_time_utc": "2022-01-01 00:00", "amount": "0.000", "units": "in", "duration": "24.000", "durationunits": "hours"}}, {"type": "Feature", "geometry": {"type": "Point", "coordinates": [-92.3755, 42.5313]}, "properties": {"name": "WATERLOO SNOW", "elevation": "863 feet", "report_time_utc": "2022-01-01 00:00", "amount": "0.000", "units": "in", "duration": "6.000", "durationunits": "hours"}}, {"type": "Feature", "geometry": {"type": "Point", "coordinates": [-92.3755, 42.5313]}, "properties": {"name": "WATERLOO SNOW", "elevation": "863 feet", "report_time_utc": "2021-12-31 18:00", "amount": "0.000", "units": "in", "duration": "6.000", "durationunits": "hours"}}, {"type": "Feature", "geometry": {"type": "Point", "coordinates": [-92.3755, 42.5313]}, "properties": {"name": "WATERLOO SNOW", "elevation": "863 feet", "report_time_utc": "2021-12-31 12:00", "amount": "0.000", "units": "in", "duration": "24.000", "durationunits": "hours"}}, {"type": "Feature", "geometry": {"type": "Point", "coordinates": [-92.3755, 42.5313]}, "properties": {"name": "WATERLOO SNOW", "elevation": "863 feet", "report_time_utc": "2021-12-31 12:00", "amount": "0.000", "units": "in", "duration": "6.000", "durationunits": "hours"}}, {"type": "Feature", "geometry": {"type": "Point", "coordinates": [-92.3755, 42.5313]}, "properties": {"name": "WATERLOO SNOW", "elevation": "863 feet", "report_time_utc": "2021-12-31 06:00", "amount": "0.001", "units": "in", "duration": "24.000", "durationunits": "hours"}}, {"type": "Feature", "geometry": {"type": "Point", "coordinates": [-92.3755, 42.5313]}, "properties": {"name": "WATERLOO SNOW", "elevation": "863 feet", "report_time_utc": "2021-12-31 06:00", "amount": "0.001", "units": "in", "duration": "12.000", "durationunits": "hours"}}, {"type": "Feature", "geometry": {"type": "Point", "coordinates": [-92.4667, 31.3167]}, "properties": {"name": "POWER PLANT", "elevation": "85 feet", "report_time_utc": "2021-12-31 12:00", "amount": "0.000", "units": "in", "duration": "24.000", "durationunits": "hours"}}, {"type": "Feature", "geometry": {"type": "Point", "coordinates": [-95.3827, 45.8782]}, "properties": {"name": "ALEXANDRIA", "elevation": "1414 feet", "report_time_utc": "2021-12-31 14:30", "amount": "0.000", "units": "in", "duration": "24.000", "durationunits": "hours"}}, {"type": "Feature", "geometry": {"type": "Point", "coordinates": [-82.6264, 40.1181]}, "properties": {"name": "ALEXANDRIA 2 NNW", "elevation": "1079 feet", "report_time_utc": "2021-12-31 12:00", "amount": "0.000", "units": "in", "duration": "24.000", "durationunits": "hours"}}, {"type": "Feature", "geometry": {"type": "Point", "coordinates": [-101.7056, 35.2194]}, "properties": {"name": "AMARILLO, TX", "elevation": "3625 feet", "report_time_utc": "2021-12-31 06:00", "amount": "0.000", "units": "in", "duration": "24.000", "durationunits": "hours"}}, {"type": "Feature", "geometry": {"type": "Point", "coordinates": [-88.4544, 46.2347]}, "properties": {"name": "AMASA 1W", "elevation": "1450 feet", "report_time_utc": "2021-12-31 14:00", "amount": "0.500", "units": "in", "duration": "24.000", "durationunits": "hours"}}, {"type": "Feature", "geometry": {"type": "Point", "coordinates": [-89.3464, 44.3083]}, "properties": {"name": "ALMOND-5 NE", "elevation": "1175 feet", "report_time_utc": "2021-12-31 14:00", "amount": "0.000", "units": "in", "duration": "24.000", "durationunits": "hours"}}, {"type": "Feature", "geometry": {"type": "Point", "coordinates": [-84.2185, 39.0213]}, "properties": {"name": "AMELIA", "elevation": "883 feet", "report_time_utc": "2021-12-31 05:00", "amount": "0.000", "units": "in", "duration": "24.000", "durationunits": "hours"}}, {"type": "Feature", "geometry": {"type": "Point", "coordinates": [-111.7708, 40.4643]}, "properties": {"name": "ALPINE", "elevation": "5089 feet", "report_time_utc": "2021-12-31 01:00", "amount": "0.400", "units": "in", "duration": "24.000", "durationunits": "hours"}}, {"type": "Feature", "geometry": {"type": "Point", "coordinates": [-89.2639, 44.4128]}, "properties": {"name": "AMHERST-3 SE", "elevation": "1027 feet", "report_time_utc": "2021-12-31 13:00", "amount": "0.001", "units": "in", "duration": "24.000", "durationunits": "hours"}}, {"type": "Feature", "geometry": {"type": "Point", "coordinates": [-91.3019, 42.0763]}, "properties": {"name": "ANAMOSA 3 SSW", "elevation": "866 feet", "report_time_utc": "2021-12-31 13:00", "amount": "0.001", "units": "in", "duration": "24.000", "durationunits": "hours"}}, {"type": "Feature", "geometry": {"type": "Point", "coordinates": [-101.71, 35.23]}, "properties": {"name": "AMARILLO", "elevation": "3609 feet", "report_time_utc": "2021-12-31 06:00", "amount": "0.000", "units": "in", "duration": "24.000", "durationunits": "hours"}}, {"type": "Feature", "geometry": {"type": "Point", "coordinates": [-84.2461, 32.0306]}, "properties": {"name": "AMERICUS", "elevation": "404 feet", "report_time_utc": "2021-12-31 11:10", "amount": "0.000", "units": "in", "duration": "24.000", "durationunits": "hours"}}, {"type": "Feature", "geometry": {"type": "Point", "coordinates": [-94.36, 39.8914]}, "properties": {"name": "AMITY 4NE", "elevation": "968 feet", "report_time_utc": "2021-12-31 12:00", "amount": "0.000", "units": "in", "duration": "24.000", "durationunits": "hours"}}, {"type": "Feature", "geometry": {"type": "Point", "coordinates": [-112.9746, 46.1343]}, "properties": {"name": "ANACONDA", "elevation": "5344 feet", "report_time_utc": "2021-12-31 23:53", "amount": "0.400", "units": "in", "duration": "24.000", "durationunits": "hours"}}, {"type": "Feature", "geometry": {"type": "Point", "coordinates": [-87.3719, 34.9628]}, "properties": {"name": "LEXINGTON", "elevation": "748 feet", "report_time_utc": "2022-01-01 00:00", "amount": "0.000", "units": "in", "duration": "24.000", "durationunits": "hours"}}, {"type": "Feature", "geometry": {"type": "Point", "coordinates": [-82.6607, 34.5283]}, "properties": {"name": "ANDERSON", "elevation": "810 feet", "report_time_utc": "2021-12-31 13:00", "amount": "0.000", "units": "in", "duration": "24.000", "durationunits": "hours"}}, {"type": "Feature", "geometry": {"type": "Point", "coordinates": [-82.6607, 34.5283]}, "properties": {"name": "ANDERSON", "elevation": "810 feet", "report_time_utc": "2021-12-31 12:00", "amount": "0.000", "units": "in", "duration": "24.000", "durationunits": "hours"}}, {"type": "Feature", "geometry": {"type": "Point", "coordinates": [-84.3667, 46.4667]}, "properties": {"name": "SAULT STE MARIE", "elevation": "699 feet", "report_time_utc": "2022-01-01 00:00", "amount": "0.001", "units": "in", "duration": "24.000", "durationunits": "hours"}}, {"type": "Feature", "geometry": {"type": "Point", "coordinates": [-84.3667, 46.4667]}, "properties": {"name": "SAULT STE MARIE", "elevation": "699 feet", "report_time_utc": "2021-12-31 12:00", "amount": "0.001", "units": "in", "duration": "24.000", "durationunits": "hours"}}, {"type": "Feature", "geometry": {"type": "Point", "coordinates": [-84.4026, 46.4867]}, "properties": {"name": "SNOW PAID OBSERVER FOR KANJ", "elevation": "614 feet", "report_time_utc": "2021-12-31 12:00", "amount": "0.001", "units": "in", "duration": "24.000", "durationunits": "hours"}}, {"type": "Feature", "geometry": {"type": "Point", "coordinates": [-84.4026, 46.4867]}, "properties": {"name": "SNOW PAID OBSERVER FOR KANJ", "elevation": "614 feet", "report_time_utc": "2021-12-31 12:00", "amount": "0.001", "units": "in", "duration": "6.000", "durationunits": "hours"}}, {"type": "Feature", "geometry": {"type": "Point", "coordinates": [-120.7533, 44.8197]}, "properties": {"name": "ANTELOPE 6 SSW", "elevation": "3025 feet", "report_time_utc": "2021-12-31 18:00", "amount": "1.000", "units": "in", "duration": "24.000", "durationunits": "hours"}}, {"type": "Feature", "geometry": {"type": "Point", "coordinates": [-120.7533, 44.8197]}, "properties": {"name": "ANTELOPE 6 SSW", "elevation": "3025 feet", "report_time_utc": "2021-12-31 15:00", "amount": "1.000", "units": "in", "duration": "24.000", "durationunits": "hours"}}, {"type": "Feature", "geometry": {"type": "Point", "coordinates": [-84.99, 41.6397]}, "properties": {"name": "ANGOLA,IN", "elevation": "1007 feet", "report_time_utc": "2021-12-31 11:30", "amount": "0.000", "units": "in", "duration": "24.000", "durationunits": "hours"}}, {"type": "Feature", "geometry": {"type": "Point", "coordinates": [-105.8919, 38.9933]}, "properties": {"name": "SOUTH PLATTE RIVER", "elevation": "8944 feet", "report_time_utc": "2021-12-31 14:30", "amount": "0.000", "units": "in", "duration": "24.000", "durationunits": "hours"}}, {"type": "Feature", "geometry": {"type": "Point", "coordinates": [-82.5328, 34.2938]}, "properties": {"name": "ANTREVILLE", "elevation": "696 feet", "report_time_utc": "2021-12-31 13:48", "amount": "0.000", "units": "in", "duration": "24.000", "durationunits": "hours"}}, {"type": "Feature", "geometry": {"type": "Point", "coordinates": [-89.15, 45.1333]}, "properties": {"name": "ANTIGO,WI", "elevation": "1503 feet", "report_time_utc": "2021-12-31 14:00", "amount": "0.000", "units": "in", "duration": "24.000", "durationunits": "hours"}}, {"type": "Feature", "geometry": {"type": "Point", "coordinates": [-97.9063, 45.4136]}, "properties": {"name": "ANDOVER NO. 2", "elevation": "1476 feet", "report_time_utc": "2021-12-31 18:00", "amount": "0.000", "units": "in", "duration": "24.000", "durationunits": "hours"}}, {"type": "Feature", "geometry": {"type": "Point", "coordinates": [-134.0988, 58.3193]}, "properties": {"name": "ANNEX CREEK", "elevation": "49 feet", "report_time_utc": "2021-12-31 16:00", "amount": "2.300", "units": "in", "duration": "24.000", "durationunits": "hours"}}, {"type": "Feature", "geometry": {"type": "Point", "coordinates": [-132.9372, 56.8055]}, "properties": {"name": "PETERSBURG 1", "elevation": "75 feet", "report_time_utc": "2021-12-31 06:00", "amount": "0.000", "units": "in", "duration": "24.000", "durationunits": "hours"}}, {"type": "Feature", "geometry": {"type": "Point", "coordinates": [-88.3644, 44.2511]}, "properties": {"name": "APPLETON WHBY RADIO", "elevation": "771 feet", "report_time_utc": "2021-12-31 14:00", "amount": "0.001", "units": "in", "duration": "24.000", "durationunits": "hours"}}, {"type": "Feature", "geometry": {"type": "Point", "coordinates": [-83.5603, 45.0781]}, "properties": {"name": "PHELPS COLLINS FIELD", "elevation": "669 feet", "report_time_utc": "2022-01-01 00:00", "amount": "0.001", "units": "in", "duration": "24.000", "durationunits": "hours"}}, {"type": "Feature", "geometry": {"type": "Point", "coordinates": [-83.5603, 45.0781]}, "properties": {"name": "PHELPS COLLINS FIELD", "elevation": "669 feet", "report_time_utc": "2021-12-31 12:00", "amount": "0.001", "units": "in", "duration": "24.000", "durationunits": "hours"}}, {"type": "Feature", "geometry": {"type": "Point", "coordinates": [-150.9283, 70.3461]}, "properties": {"name": "ALPINE AIRSTRIP", "elevation": "36 feet", "report_time_utc": "2021-12-31 03:00", "amount": "0.000", "units": "in", "duration": "24.000", "durationunits": "hours"}}, {"type": "Feature", "geometry": {"type": "Point", "coordinates": [-150.9283, 70.3461]}, "properties": {"name": "ALPINE AIRSTRIP", "elevation": "36 feet", "report_time_utc": "2021-12-31 01:30", "amount": "0.000", "units": "in", "duration": "24.000", "durationunits": "hours"}}, {"type": "Feature", "geometry": {"type": "Point", "coordinates": [-88.4377, 44.2769]}, "properties": {"name": "APPLETON", "elevation": "784 feet", "report_time_utc": "2021-12-31 11:00", "amount": "0.001", "units": "in", "duration": "24.000", "durationunits": "hours"}}, {"type": "Feature", "geometry": {"type": "Point", "coordinates": [-84.7188, 44.9072]}, "properties": {"name": "GAYLORD 9SSW", "elevation": "1460 feet", "report_time_utc": "2022-01-01 00:00", "amount": "0.000", "units": "in", "duration": "6.000", "durationunits": "hours"}}, {"type": "Feature", "geometry": {"type": "Point", "coordinates": [-84.7188, 44.9072]}, "properties": {"name": "GAYLORD 9SSW", "elevation": "1460 feet", "report_time_utc": "2021-12-31 18:00", "amount": "0.000", "units": "in", "duration": "6.000", "durationunits": "hours"}}, {"type": "Feature", "geometry": {"type": "Point", "coordinates": [-84.7188, 44.9072]}, "properties": {"name": "GAYLORD 9SSW", "elevation": "1460 feet", "report_time_utc": "2021-12-31 12:00", "amount": "0.001", "units": "in", "duration": "24.000", "durationunits": "hours"}}, {"type": "Feature", "geometry": {"type": "Point", "coordinates": [-84.7188, 44.9072]}, "properties": {"name": "GAYLORD 9SSW", "elevation": "1460 feet", "report_time_utc": "2021-12-31 12:00", "amount": "0.001", "units": "in", "duration": "6.000", "durationunits": "hours"}}, {"type": "Feature", "geometry": {"type": "Point", "coordinates": [-84.7188, 44.9072]}, "properties": {"name": "GAYLORD 9SSW", "elevation": "1460 feet", "report_time_utc": "2021-12-31 06:00", "amount": "0.001", "units": "in", "duration": "6.000", "durationunits": "hours"}}, {"type": "Feature", "geometry": {"type": "Point", "coordinates": [-84.7188, 44.9072]}, "properties": {"name": "GAYLORD 9SSW", "elevation": "1460 feet", "report_time_utc": "2021-12-31 04:58", "amount": "0.001", "units": "in", "duration": "24.000", "durationunits": "hours"}}, {"type": "Feature", "geometry": {"type": "Point", "coordinates": [-78.8274, 37.3261]}, "properties": {"name": "APPOMATTOX", "elevation": "846 feet", "report_time_utc": "2021-12-31 13:21", "amount": "0.000", "units": "in", "duration": "24.000", "durationunits": "hours"}}, {"type": "Feature", "geometry": {"type": "Point", "coordinates": [-91.9671, 33.11452]}, "properties": {"name": "CROSSETT 0.9 S, AR", "elevation": "187 feet", "report_time_utc": "2021-12-31 13:00", "amount": "0.000", "units": "in", "duration": "24.000", "durationunits": "hours"}}, {"type": "Feature", "geometry": {"type": "Point", "coordinates": [-92.904, 36.18576]}, "properties": {"name": "EVERTON 2.1 N, AR", "elevation": "945 feet", "report_time_utc": "2021-12-31 13:00", "amount": "0.000", "units": "in", "duration": "24.000", "durationunits": "hours"}}, {"type": "Feature", "geometry": {"type": "Point", "coordinates": [-93.23713, 36.12207]}, "properties": {"name": "HARRISON 10.6 SW, AR", "elevation": "2139 feet", "report_time_utc": "2021-12-31 12:00", "amount": "0.000", "units": "in", "duration": "24.000", "durationunits": "hours"}}, {"type": "Feature", "geometry": {"type": "Point", "coordinates": [-93.11405, 36.27637]}, "properties": {"name": "HARRISON 2.4 N, AR", "elevation": "1407 feet", "report_time_utc": "2021-12-31 14:26", "amount": "0.000", "units": "in", "duration": "24.000", "durationunits": "hours"}}, {"type": "Feature", "geometry": {"type": "Point", "coordinates": [-93.11405, 36.27637]}, "properties": {"name": "HARRISON 2.4 N, AR", "elevation": "1407 feet", "report_time_utc": "2021-12-31 13:00", "amount": "0.000", "units": "in", "duration": "24.000", "durationunits": "hours"}}, {"type": "Feature", "geometry": {"type": "Point", "coordinates": [-94.413, 36.32755]}, "properties": {"name": "DECATUR 2.6 ESE, AR", "elevation": "1404 feet", "report_time_utc": "2021-12-31 13:00", "amount": "0.000", "units": "in", "duration": "24.000", "durationunits": "hours"}}, {"type": "Feature", "geometry": {"type": "Point", "coordinates": [-94.413, 36.32755]}, "properties": {"name": "DECATUR 2.6 ESE, AR", "elevation": "1404 feet", "report_time_utc": "2021-12-31 12:15", "amount": "0.000", "units": "in", "duration": "24.000", "durationunits": "hours"}}, {"type": "Feature", "geometry": {"type": "Point", "coordinates": [-94.2437, 36.27877]}, "properties": {"name": "BENTONVILLE 6.6 SSW, AR", "elevation": "1266 feet", "report_time_utc": "2021-12-31 13:00", "amount": "0.000", "units": "in", "duration": "24.000", "durationunits": "hours"}}, {"type": "Feature", "geometry": {"type": "Point", "coordinates": [-94.25512, 36.47248]}, "properties": {"name": "BELLA VISTA 2.2 E, AR", "elevation": "1115 feet", "report_time_utc": "2021-12-31 13:00", "amount": "0.000", "units": "in", "duration": "24.000", "durationunits": "hours"}}, {"type": "Feature", "geometry": {"type": "Point", "coordinates": [-94.26628, 36.36094]}, "properties": {"name": "CENTERTON 1.0 E, AR", "elevation": "1283 feet", "report_time_utc": "2021-12-31 13:00", "amount": "0.000", "units": "in", "duration": "24.000", "durationunits": "hours"}}, {"type": "Feature", "geometry": {"type": "Point", "coordinates": [-94.38862, 36.29325]}, "properties": {"name": "GENTRY 5.6 ENE, AR", "elevation": "1375 feet", "report_time_utc": "2021-12-31 13:00", "amount": "0.000", "units": "in", "duration": "24.000", "durationunits": "hours"}}, {"type": "Feature", "geometry": {"type": "Point", "coordinates": [-93.9008, 36.44529]}, "properties": {"name": "GARFIELD 3.9 E, AR", "elevation": "1417 feet", "report_time_utc": "2021-12-31 13:00", "amount": "0.000", "units": "in", "duration": "24.000", "durationunits": "hours"}}, {"type": "Feature", "geometry": {"type": "Point", "coordinates": [-92.4975, 36.38673]}, "properties": {"name": "MIDWAY 2.0 W, AR", "elevation": "866 feet", "report_time_utc": "2021-12-31 14:00", "amount": "0.000", "units": "in", "duration": "24.000", "durationunits": "hours"}}, {"type": "Feature", "geometry": {"type": "Point", "coordinates": [-92.4975, 36.38673]}, "properties": {"name": "MIDWAY 2.0 W, AR", "elevation": "866 feet", "report_time_utc": "2021-12-31 13:00", "amount": "0.000", "units": "in", "duration": "24.000", "durationunits": "hours"}}, {"type": "Feature", "geometry": {"type": "Point", "coordinates": [-92.2666, 36.3307]}, "properties": {"name": "MOUNTAIN HOME 6.3 E, AR", "elevation": "735 feet", "report_time_utc": "2021-12-31 14:00", "amount": "0.000", "units": "in", "duration": "24.000", "durationunits": "hours"}}, {"type": "Feature", "geometry": {"type": "Point", "coordinates": [-92.2666, 36.3307]}, "properties": {"name": "MOUNTAIN HOME 6.3 E, AR", "elevation": "735 feet", "report_time_utc": "2021-12-31 13:00", "amount": "0.000", "units": "in", "duration": "24.000", "durationunits": "hours"}}, {"type": "Feature", "geometry": {"type": "Point", "coordinates": [-92.2874, 36.22465]}, "properties": {"name": "NORFORK 1.2 NNW, AR", "elevation": "443 feet", "report_time_utc": "2021-12-31 13:00", "amount": "0.000", "units": "in", "duration": "24.000", "durationunits": "hours"}}, {"type": "Feature", "geometry": {"type": "Point", "coordinates": [-92.35193, 36.43954]}, "properties": {"name": "MOUNTAIN HOME 7.3 NNE, AR", "elevation": "902 feet", "report_time_utc": "2021-12-31 14:06", "amount": "0.000", "units": "in", "duration": "24.000", "durationunits": "hours"}}, {"type": "Feature", "geometry": {"type": "Point", "coordinates": [-92.35193, 36.43954]}, "properties": {"name": "MOUNTAIN HOME 7.3 NNE, AR", "elevation": "902 feet", "report_time_utc": "2021-12-31 13:00", "amount": "0.000", "units": "in", "duration": "24.000", "durationunits": "hours"}}, {"type": "Feature", "geometry": {"type": "Point", "coordinates": [-91.96551, 35.44671]}, "properties": {"name": "HEBER SPRINGS 5.5 SE, AR", "elevation": "856 feet", "report_time_utc": "2021-12-31 13:00", "amount": "0.000", "units": "in", "duration": "24.000", "durationunits": "hours"}}, {"type": "Feature", "geometry": {"type": "Point", "coordinates": [-92.11406, 35.61072]}, "properties": {"name": "GREERS FERRY 4.3 NE, AR", "elevation": "545 feet", "report_time_utc": "2021-12-31 15:00", "amount": "0.000", "units": "in", "duration": "24.000", "durationunits": "hours"}}, {"type": "Feature", "geometry": {"type": "Point", "coordinates": [-92.11406, 35.61072]}, "properties": {"name": "GREERS FERRY 4.3 NE, AR", "elevation": "545 feet", "report_time_utc": "2021-12-31 13:00", "amount": "0.000", "units": "in", "duration": "24.000", "durationunits": "hours"}}, {"type": "Feature", "geometry": {"type": "Point", "coordinates": [-94.4147, 35.5732]}, "properties": {"name": "UNIONTOWN 2.1 ESE, AR", "elevation": "840 feet", "report_time_utc": "2021-12-31 13:00", "amount": "0.000", "units": "in", "duration": "24.000", "durationunits": "hours"}}, {"type": "Feature", "geometry": {"type": "Point", "coordinates": [-93.1031, 34.14484]}, "properties": {"name": "ARKADELPHIA 2.4 NW, AR", "elevation": "338 feet", "report_time_utc": "2021-12-31 14:00", "amount": "0.000", "units": "in", "duration": "24.000", "durationunits": "hours"}}, {"type": "Feature", "geometry": {"type": "Point", "coordinates": [-93.737, 36.46714]}, "properties": {"name": "HOLIDAY ISLAND 1.3 SSW, AR", "elevation": "1444 feet", "report_time_utc": "2021-12-31 13:00", "amount": "0.000", "units": "in", "duration": "24.000", "durationunits": "hours"}}, {"type": "Feature", "geometry": {"type": "Point", "coordinates": [-92.634, 35.1577]}, "properties": {"name": "PLUMERVILLE 0.5 ESE, AR", "elevation": "295 feet", "report_time_utc": "2021-12-31 14:00", "amount": "0.000", "units": "in", "duration": "24.000", "durationunits": "hours"}}, {"type": "Feature", "geometry": {"type": "Point", "coordinates": [-92.634, 35.1577]}, "properties": {"name": "PLUMERVILLE 0.5 ESE, AR", "elevation": "295 feet", "report_time_utc": "2021-12-31 13:00", "amount": "0.000", "units": "in", "duration": "24.000", "durationunits": "hours"}}, {"type": "Feature", "geometry": {"type": "Point", "coordinates": [-92.9025, 35.12364]}, "properties": {"name": "MORRILTON 9.4 WSW, AR", "elevation": "961 feet", "report_time_utc": "2021-12-31 13:00", "amount": "0.000", "units": "in", "duration": "24.000", "durationunits": "hours"}}, {"type": "Feature", "geometry": {"type": "Point", "coordinates": [-94.0174, 35.2965]}, "properties": {"name": "CHARLESTON 1.7 E, AR", "elevation": "531 feet", "report_time_utc": "2021-12-31 13:00", "amount": "0.000", "units": "in", "duration": "24.000", "durationunits": "hours"}}, {"type": "Feature", "geometry": {"type": "Point", "coordinates": [-94.0432, 35.4265]}, "properties": {"name": "RIVERDALE 4.2 E, AR", "elevation": "558 feet", "report_time_utc": "2021-12-31 14:30", "amount": "0.000", "units": "in", "duration": "24.000", "durationunits": "hours"}}, {"type": "Feature", "geometry": {"type": "Point", "coordinates": [-94.0432, 35.4265]}, "properties": {"name": "RIVERDALE 4.2 E, AR", "elevation": "558 feet", "report_time_utc": "2021-12-31 13:00", "amount": "0.000", "units": "in", "duration": "24.000", "durationunits": "hours"}}, {"type": "Feature", "geometry": {"type": "Point", "coordinates": [-92.9866, 34.66127]}, "properties": {"name": "HOT SPRINGS VILLAGE 0.8 ESE, AR", "elevation": "978 feet", "report_time_utc": "2021-12-31 13:00", "amount": "0.000", "units": "in", "duration": "24.000", "durationunits": "hours"}}, {"type": "Feature", "geometry": {"type": "Point", "coordinates": [-92.9866, 34.66127]}, "properties": {"name": "HOT SPRINGS VILLAGE 0.8 ESE, AR", "elevation": "978 feet", "report_time_utc": "2021-12-31 09:58", "amount": "0.000", "units": "in", "duration": "24.000", "durationunits": "hours"}}, {"type": "Feature", "geometry": {"type": "Point", "coordinates": [-91.38489, 35.79425]}, "properties": {"name": "SULPHUR ROCK 7.1 ENE, AR", "elevation": "344 feet", "report_time_utc": "2021-12-31 13:00", "amount": "0.000", "units": "in", "duration": "24.000", "durationunits": "hours"}}, {"type": "Feature", "geometry": {"type": "Point", "coordinates": [-91.38489, 35.79425]}, "properties": {"name": "SULPHUR ROCK 7.1 ENE, AR", "elevation": "344 feet", "report_time_utc": "2021-12-31 11:16", "amount": "0.000", "units": "in", "duration": "24.000", "durationunits": "hours"}}, {"type": "Feature", "geometry": {"type": "Point", "coordinates": [-92.0338, 35.96852]}, "properties": {"name": "MELBOURNE 10.0 SW, AR", "elevation": "400 feet", "report_time_utc": "2021-12-31 13:00", "amount": "0.000", "units": "in", "duration": "24.000", "durationunits": "hours"}}, {"type": "Feature", "geometry": {"type": "Point", "coordinates": [-93.4452, 35.3764]}, "properties": {"name": "SCRANTON 5.4 ENE, AR", "elevation": "404 feet", "report_time_utc": "2021-12-31 13:00", "amount": "0.000", "units": "in", "duration": "24.000", "durationunits": "hours"}}, {"type": "Feature", "geometry": {"type": "Point", "coordinates": [-92.0567, 34.71384]}, "properties": {"name": "SCOTT 2.6 ENE, AR", "elevation": "253 feet", "report_time_utc": "2021-12-31 13:00", "amount": "0.000", "units": "in", "duration": "24.000", "durationunits": "hours"}}, {"type": "Feature", "geometry": {"type": "Point", "coordinates": [-91.8043, 34.784]}, "properties": {"name": "CARLISLE 3.3 W, AR", "elevation": "223 feet", "report_time_utc": "2021-12-31 13:00", "amount": "0.000", "units": "in", "duration": "24.000", "durationunits": "hours"}}, {"type": "Feature", "geometry": {"type": "Point", "coordinates": [-91.8043, 34.784]}, "properties": {"name": "CARLISLE 3.3 W, AR", "elevation": "223 feet", "report_time_utc": "2021-12-31 12:30", "amount": "0.000", "units": "in", "duration": "24.000", "durationunits": "hours"}}, {"type": "Feature", "geometry": {"type": "Point", "coordinates": [-91.2889, 36.07714]}, "properties": {"name": "SMITHVILLE 0.8 ESE, AR", "elevation": "390 feet", "report_time_utc": "2021-12-31 13:00", "amount": "0.000", "units": "in", "duration": "24.000", "durationunits": "hours"}}, {"type": "Feature", "geometry": {"type": "Point", "coordinates": [-91.2889, 36.07714]}, "properties": {"name": "SMITHVILLE 0.8 ESE, AR", "elevation": "390 feet", "report_time_utc": "2021-12-31 11:45", "amount": "0.000", "units": "in", "duration": "24.000", "durationunits": "hours"}}, {"type": "Feature", "geometry": {"type": "Point", "coordinates": [-91.2712, 36.02228]}, "properties": {"name": "SMITHVILLE 4.4 SSE, AR", "elevation": "423 feet", "report_time_utc": "2021-12-31 16:00", "amount": "0.000", "units": "in", "duration": "24.000", "durationunits": "hours"}}, {"type": "Feature", "geometry": {"type": "Point", "coordinates": [-91.2712, 36.02228]}, "properties": {"name": "SMITHVILLE 4.4 SSE, AR", "elevation": "423 feet", "report_time_utc": "2021-12-31 13:00", "amount": "0.000", "units": "in", "duration": "24.000", "durationunits": "hours"}}, {"type": "Feature", "geometry": {"type": "Point", "coordinates": [-93.9259, 35.86442]}, "properties": {"name": "ELKINS 10.6 SSE, AR", "elevation": "1407 feet", "report_time_utc": "2021-12-31 14:00", "amount": "0.000", "units": "in", "duration": "24.000", "durationunits": "hours"}}, {"type": "Feature", "geometry": {"type": "Point", "coordinates": [-93.7976, 33.28192]}, "properties": {"name": "FOUKE 5.3 ENE, AR", "elevation": "226 feet", "report_time_utc": "2021-12-31 13:00", "amount": "0.000", "units": "in", "duration": "24.000", "durationunits": "hours"}}, {"type": "Feature", "geometry": {"type": "Point", "coordinates": [-93.7976, 33.28192]}, "properties": {"name": "FOUKE 5.3 ENE, AR", "elevation": "226 feet", "report_time_utc": "2021-12-31 12:00", "amount": "0.000", "units": "in", "duration": "24.000", "durationunits": "hours"}}, {"type": "Feature", "geometry": {"type": "Point", "coordinates": [-92.53, 36.25306]}, "properties": {"name": "FLIPPIN 3.8 ESE, AR", "elevation": "732 feet", "report_time_utc": "2021-12-31 15:00", "amount": "0.000", "units": "in", "duration": "24.000", "durationunits": "hours"}}, {"type": "Feature", "geometry": {"type": "Point", "coordinates": [-92.53, 36.25306]}, "properties": {"name": "FLIPPIN 3.8 ESE, AR", "elevation": "732 feet", "report_time_utc": "2021-12-31 13:00", "amount": "0.000", "units": "in", "duration": "24.000", "durationunits": "hours"}}, {"type": "Feature", "geometry": {"type": "Point", "coordinates": [-92.7641, 36.31411]}, "properties": {"name": "YELLVILLE 7.3 NW, AR", "elevation": "1283 feet", "report_time_utc": "2021-12-31 13:00", "amount": "0.000", "units": "in", "duration": "24.000", "durationunits": "hours"}}, {"type": "Feature", "geometry": {"type": "Point", "coordinates": [-92.7602, 36.10055]}, "properties": {"name": "BRUNO 3.1 SSE, AR", "elevation": "1184 feet", "report_time_utc": "2021-12-31 13:00", "amount": "0.000", "units": "in", "duration": "24.000", "durationunits": "hours"}}, {"type": "Feature", "geometry": {"type": "Point", "coordinates": [-93.41928, 34.52656]}, "properties": {"name": "MOUNT IDA 12.2 E, AR", "elevation": "922 feet", "report_time_utc": "2021-12-31 13:00", "amount": "0.000", "units": "in", "duration": "24.000", "durationunits": "hours"}}, {"type": "Feature", "geometry": {"type": "Point", "coordinates": [-93.1381, 35.9698]}, "properties": {"name": "JASPER 3.8 SE, AR", "elevation": "2185 feet", "report_time_utc": "2021-12-31 13:00", "amount": "0.000", "units": "in", "duration": "24.000", "durationunits": "hours"}}, {"type": "Feature", "geometry": {"type": "Point", "coordinates": [-92.8172, 33.49146]}, "properties": {"name": "CAMDEN 5.4 SSE, AR", "elevation": "230 feet", "report_time_utc": "2021-12-31 13:00", "amount": "0.000", "units": "in", "duration": "24.000", "durationunits": "hours"}}, {"type": "Feature", "geometry": {"type": "Point", "coordinates": [-93.5069, 34.03306]}, "properties": {"name": "DELIGHT 0.3 NNW, AR", "elevation": "371 feet", "report_time_utc": "2021-12-31 13:00", "amount": "0.000", "units": "in", "duration": "24.000", "durationunits": "hours"}}, {"type": "Feature", "geometry": {"type": "Point", "coordinates": [-93.5418, 34.0417]}, "properties": {"name": "DELIGHT 2.2 WNW, AR", "elevation": "499 feet", "report_time_utc": "2021-12-31 14:00", "amount": "0.000", "units": "in", "duration": "24.000", "durationunits": "hours"}}, {"type": "Feature", "geometry": {"type": "Point", "coordinates": [-94.2895, 34.598]}, "properties": {"name": "MENA 3.2 WNW, AR", "elevation": "1175 feet", "report_time_utc": "2021-12-31 13:28", "amount": "0.000", "units": "in", "duration": "24.000", "durationunits": "hours"}}, {"type": "Feature", "geometry": {"type": "Point", "coordinates": [-94.2895, 34.598]}, "properties": {"name": "MENA 3.2 WNW, AR", "elevation": "1175 feet", "report_time_utc": "2021-12-31 13:00", "amount": "0.000", "units": "in", "duration": "24.000", "durationunits": "hours"}}, {"type": "Feature", "geometry": {"type": "Point", "coordinates": [-92.9906, 35.39778]}, "properties": {"name": "DOVER 6.9 E, AR", "elevation": "1083 feet", "report_time_utc": "2021-12-31 13:00", "amount": "0.000", "units": "in", "duration": "24.000", "durationunits": "hours"}}, {"type": "Feature", "geometry": {"type": "Point", "coordinates": [-93.00946, 35.45039]}, "properties": {"name": "HECTOR 2.2 WSW, AR", "elevation": "653 feet", "report_time_utc": "2021-12-31 13:00", "amount": "0.000", "units": "in", "duration": "24.000", "durationunits": "hours"}}, {"type": "Feature", "geometry": {"type": "Point", "coordinates": [-93.0172, 35.30552]}, "properties": {"name": "RUSSELLVILLE 7.3 ENE, AR", "elevation": "922 feet", "report_time_utc": "2021-12-31 13:00", "amount": "0.000", "units": "in", "duration": "24.000", "durationunits": "hours"}}, {"type": "Feature", "geometry": {"type": "Point", "coordinates": [-92.406, 34.76596]}, "properties": {"name": "LITTLE ROCK 4.2 NW, AR", "elevation": "472 feet", "report_time_utc": "2021-12-31 13:00", "amount": "0.000", "units": "in", "duration": "24.000", "durationunits": "hours"}}, {"type": "Feature", "geometry": {"type": "Point", "coordinates": [-92.2439, 34.89235]}, "properties": {"name": "SHERWOOD 4.6 NNW, AR", "elevation": "358 feet", "report_time_utc": "2021-12-31 13:00", "amount": "0.000", "units": "in", "duration": "24.000", "durationunits": "hours"}}, {"type": "Feature", "geometry": {"type": "Point", "coordinates": [-92.2338, 34.82224]}, "properties": {"name": "NORTH LITTLE ROCK 2.6 NNE, AR", "elevation": "377 feet", "report_time_utc": "2021-12-31 13:00", "amount": "0.000", "units": "in", "duration": "24.000", "durationunits": "hours"}}, {"type": "Feature", "geometry": {"type": "Point", "coordinates": [-92.3996, 34.84458]}, "properties": {"name": "MAUMELLE 0.8 SE, AR", "elevation": "305 feet", "report_time_utc": "2021-12-31 13:00", "amount": "0.000", "units": "in", "duration": "24.000", "durationunits": "hours"}}, {"type": "Feature", "geometry": {"type": "Point", "coordinates": [-92.22315, 34.80162]}, "properties": {"name": "NORTH LITTLE ROCK 2.0 ENE, AR", "elevation": "312 feet", "report_time_utc": "2021-12-31 13:00", "amount": "0.000", "units": "in", "duration": "24.000", "durationunits": "hours"}}, {"type": "Feature", "geometry": {"type": "Point", "coordinates": [-92.40332, 34.76069]}, "properties": {"name": "LITTLE ROCK 3.8 NW, AR", "elevation": "545 feet", "report_time_utc": "2021-12-31 13:00", "amount": "0.000", "units": "in", "duration": "24.000", "durationunits": "hours"}}, {"type": "Feature", "geometry": {"type": "Point", "coordinates": [-92.33788, 34.60271]}, "properties": {"name": "LITTLE ROCK 8.3 S, AR", "elevation": "308 feet", "report_time_utc": "2021-12-31 14:00", "amount": "0.000", "units": "in", "duration": "24.000", "durationunits": "hours"}}, {"type": "Feature", "geometry": {"type": "Point", "coordinates": [-92.33788, 34.60271]}, "properties": {"name": "LITTLE ROCK 8.3 S, AR", "elevation": "308 feet", "report_time_utc": "2021-12-31 13:00", "amount": "0.000", "units": "in", "duration": "24.000", "durationunits": "hours"}}, {"type": "Feature", "geometry": {"type": "Point", "coordinates": [-92.6263, 35.00232]}, "properties": {"name": "BIGELOW 0.4 NE, AR", "elevation": "312 feet", "report_time_utc": "2021-12-31 13:00", "amount": "0.000", "units": "in", "duration": "24.000", "durationunits": "hours"}}, {"type": "Feature", "geometry": {"type": "Point", "coordinates": [-94.23525, 35.19923]}, "properties": {"name": "GREENWOOD 0.9 S, AR", "elevation": "653 feet", "report_time_utc": "2021-12-31 13:00", "amount": "0.000", "units": "in", "duration": "24.000", "durationunits": "hours"}}, {"type": "Feature", "geometry": {"type": "Point", "coordinates": [-91.5115, 36.20838]}, "properties": {"name": "HARDY 8.0 SSW, AR", "elevation": "594 feet", "report_time_utc": "2021-12-31 12:00", "amount": "0.001", "units": "in", "duration": "24.000", "durationunits": "hours"}}, {"type": "Feature", "geometry": {"type": "Point", "coordinates": [-91.5922, 36.2407]}, "properties": {"name": "ASH FLAT 1.3 NE, AR", "elevation": "577 feet", "report_time_utc": "2021-12-31 13:00", "amount": "0.000", "units": "in", "duration": "24.000", "durationunits": "hours"}}, {"type": "Feature", "geometry": {"type": "Point", "coordinates": [-91.5954, 36.03733]}, "properties": {"name": "EVENING SHADE 2.7 SSE, AR", "elevation": "571 feet", "report_time_utc": "2021-12-31 13:00", "amount": "0.000", "units": "in", "duration": "24.000", "durationunits": "hours"}}, {"type": "Feature", "geometry": {"type": "Point", "coordinates": [-92.4048, 34.4918]}, "properties": {"name": "BAUXITE 8.2 ESE, AR", "elevation": "315 feet", "report_time_utc": "2021-12-31 13:00", "amount": "0.000", "units": "in", "duration": "24.000", "durationunits": "hours"}}, {"type": "Feature", "geometry": {"type": "Point", "coordinates": [-92.5069, 34.66895]}, "properties": {"name": "ALEXANDER 4.5 NW, AR", "elevation": "499 feet", "report_time_utc": "2021-12-31 13:00", "amount": "0.000", "units": "in", "duration": "24.000", "durationunits": "hours"}}, {"type": "Feature", "geometry": {"type": "Point", "coordinates": [-92.91335, 34.65876]}, "properties": {"name": "FOUNTAIN LAKE 2.6 NNE, AR", "elevation": "617 feet", "report_time_utc": "2021-12-31 13:00", "amount": "0.000", "units": "in", "duration": "24.000", "durationunits": "hours"}}, {"type": "Feature", "geometry": {"type": "Point", "coordinates": [-92.5521, 34.7177]}, "properties": {"name": "LITTLE ROCK 15.1 W, AR", "elevation": "581 feet", "report_time_utc": "2021-12-31 13:00", "amount": "0.000", "units": "in", "duration": "24.000", "durationunits": "hours"}}, {"type": "Feature", "geometry": {"type": "Point", "coordinates": [-92.8434, 36.0518]}, "properties": {"name": "ST. JOE 2.7 WNW, AR", "elevation": "1280 feet", "report_time_utc": "2021-12-31 13:00", "amount": "0.000", "units": "in", "duration": "24.000", "durationunits": "hours"}}, {"type": "Feature", "geometry": {"type": "Point", "coordinates": [-91.92611, 35.77361]}, "properties": {"name": "MOUNTAIN VIEW 12.3 ESE, AR", "elevation": "1312 feet", "report_time_utc": "2021-12-31 13:00", "amount": "0.000", "units": "in", "duration": "24.000", "durationunits": "hours"}}, {"type": "Feature", "geometry": {"type": "Point", "coordinates": [-92.5408, 35.67491]}, "properties": {"name": "CLINTON 8.2 NW, AR", "elevation": "728 feet", "report_time_utc": "2021-12-31 13:00", "amount": "0.000", "units": "in", "duration": "24.000", "durationunits": "hours"}}, {"type": "Feature", "geometry": {"type": "Point", "coordinates": [-92.3039, 35.47552]}, "properties": {"name": "BEE BRANCH 5.4 ENE, AR", "elevation": "778 feet", "report_time_utc": "2021-12-31 14:00", "amount": "0.000", "units": "in", "duration": "24.000", "durationunits": "hours"}}, {"type": "Feature", "geometry": {"type": "Point", "coordinates": [-92.3828, 35.40333]}, "properties": {"name": "DAMASCUS 3.0 NNE, AR", "elevation": "702 feet", "report_time_utc": "2021-12-31 13:00", "amount": "0.000", "units": "in", "duration": "24.000", "durationunits": "hours"}}, {"type": "Feature", "geometry": {"type": "Point", "coordinates": [-91.8879, 35.06933]}, "properties": {"name": "BEEBE 0.4 ESE, AR", "elevation": "246 feet", "report_time_utc": "2021-12-31 13:00", "amount": "0.000", "units": "in", "duration": "24.000", "durationunits": "hours"}}, {"type": "Feature", "geometry": {"type": "Point", "coordinates": [-91.8879, 35.06933]}, "properties": {"name": "BEEBE 0.4 ESE, AR", "elevation": "246 feet", "report_time_utc": "2021-12-31 11:30", "amount": "0.000", "units": "in", "duration": "24.000", "durationunits": "hours"}}, {"type": "Feature", "geometry": {"type": "Point", "coordinates": [-91.6902, 35.19375]}, "properties": {"name": "SEARCY 4.1 SE, AR", "elevation": "226 feet", "report_time_utc": "2021-12-31 13:00", "amount": "0.000", "units": "in", "duration": "24.000", "durationunits": "hours"}}, {"type": "Feature", "geometry": {"type": "Point", "coordinates": [-94.1066, 36.13554]}, "properties": {"name": "FAYETTEVILLE 5.2 NNE, AR", "elevation": "1312 feet", "report_time_utc": "2021-12-31 13:00", "amount": "0.000", "units": "in", "duration": "24.000", "durationunits": "hours"}}, {"type": "Feature", "geometry": {"type": "Point", "coordinates": [-94.00994, 35.99962]}, "properties": {"name": "ELKINS 1.7 SE, AR", "elevation": "1230 feet", "report_time_utc": "2021-12-31 15:00", "amount": "0.000", "units": "in", "duration": "24.000", "durationunits": "hours"}}, {"type": "Feature", "geometry": {"type": "Point", "coordinates": [-94.2246, 36.0651]}, "properties": {"name": "FAYETTEVILLE 3.9 W, AR", "elevation": "1237 feet", "report_time_utc": "2021-12-31 13:00", "amount": "0.000", "units": "in", "duration": "24.000", "durationunits": "hours"}}, {"type": "Feature", "geometry": {"type": "Point", "coordinates": [-83.7167, 42.3]}, "properties": {"name": "UNIV OF MICH", "elevation": "886 feet", "report_time_utc": "2021-12-31 23:00", "amount": "0.000", "units": "in", "duration": "24.000", "durationunits": "hours"}}, {"type": "Feature", "geometry": {"type": "Point", "coordinates": [-83.7167, 42.3]}, "properties": {"name": "UNIV OF MICH", "elevation": "886 feet", "report_time_utc": "2021-12-31 12:00", "amount": "0.000", "units": "in", "duration": "24.000", "durationunits": "hours"}}, {"type": "Feature", "geometry": {"type": "Point", "coordinates": [-92.9186, 32.5511]}, "properties": {"name": "ARCADIA", "elevation": "404 feet", "report_time_utc": "2021-12-31 13:00", "amount": "0.000", "units": "in", "duration": "24.000", "durationunits": "hours"}}, {"type": "Feature", "geometry": {"type": "Point", "coordinates": [-99.1272, 41.4266]}, "properties": {"name": "ARCADIA", "elevation": "2165 feet", "report_time_utc": "2021-12-31 13:00", "amount": "0.000", "units": "in", "duration": "24.000", "durationunits": "hours"}}, {"type": "Feature", "geometry": {"type": "Point", "coordinates": [-89.8693, 42.6994]}, "properties": {"name": "ARGYLE WWTP", "elevation": "797 feet", "report_time_utc": "2021-12-31 13:28", "amount": "0.001", "units": "in", "duration": "24.000", "durationunits": "hours"}}, {"type": "Feature", "geometry": {"type": "Point", "coordinates": [-120.2064, 45.7212]}, "properties": {"name": "ARLINGTON", "elevation": "269 feet", "report_time_utc": "2021-12-31 18:00", "amount": "0.200", "units": "in", "duration": "24.000", "durationunits": "hours"}}, {"type": "Feature", "geometry": {"type": "Point", "coordinates": [-120.2064, 45.7212]}, "properties": {"name": "ARLINGTON", "elevation": "269 feet", "report_time_utc": "2021-12-31 16:05", "amount": "0.200", "units": "in", "duration": "24.000", "durationunits": "hours"}}, {"type": "Feature", "geometry": {"type": "Point", "coordinates": [-89.3453, 43.3041]}, "properties": {"name": "UW FARM - ARLINGTON", "elevation": "1050 feet", "report_time_utc": "2021-12-31 14:00", "amount": "0.001", "units": "in", "duration": "24.000", "durationunits": "hours"}}, {"type": "Feature", "geometry": {"type": "Point", "coordinates": [-87.4833, 46.0667]}, "properties": {"name": "ARNOLD,MI", "elevation": "1070 feet", "report_time_utc": "2021-12-31 13:00", "amount": "0.500", "units": "in", "duration": "24.000", "durationunits": "hours"}}, {"type": "Feature", "geometry": {"type": "Point", "coordinates": [-88.35, 41.75]}, "properties": {"name": "WATER DEPT", "elevation": "669 feet", "report_time_utc": "2021-12-31 13:00", "amount": "0.000", "units": "in", "duration": "24.000", "durationunits": "hours"}}, {"type": "Feature", "geometry": {"type": "Point", "coordinates": [-88.4885, 39.7106]}, "properties": {"name": "ARTHUR", "elevation": "669 feet", "report_time_utc": "2021-12-31 13:30", "amount": "0.000", "units": "in", "duration": "24.000", "durationunits": "hours"}}, {"type": "Feature", "geometry": {"type": "Point", "coordinates": [-96.1257, 45.3856]}, "properties": {"name": "ARTICHOKE LAKE 1 E", "elevation": "1102 feet", "report_time_utc": "2021-12-31 23:00", "amount": "0.000", "units": "in", "duration": "24.000", "durationunits": "hours"}}, {"type": "Feature", "geometry": {"type": "Point", "coordinates": [-96.1257, 45.3856]}, "properties": {"name": "ARTICHOKE LAKE 1 E", "elevation": "1102 feet", "report_time_utc": "2021-12-31 02:00", "amount": "0.000", "units": "in", "duration": "24.000", "durationunits": "hours"}}, {"type": "Feature", "geometry": {"type": "Point", "coordinates": [-91.1919, 43.8228]}, "properties": {"name": "LA CROSSE, WI", "elevation": "1273 feet", "report_time_utc": "2022-01-01 00:00", "amount": "0.000", "units": "in", "duration": "6.000", "durationunits": "hours"}}, {"type": "Feature", "geometry": {"type": "Point", "coordinates": [-91.1919, 43.8228]}, "properties": {"name": "LA CROSSE, WI", "elevation": "1273 feet", "report_time_utc": "2021-12-31 18:00", "amount": "0.000", "units": "in", "duration": "6.000", "durationunits": "hours"}}, {"type": "Feature", "geometry": {"type": "Point", "coordinates": [-91.1919, 43.8228]}, "properties": {"name": "LA CROSSE, WI", "elevation": "1273 feet", "report_time_utc": "2021-12-31 12:00", "amount": "0.800", "units": "in", "duration": "24.000", "durationunits": "hours"}}, {"type": "Feature", "geometry": {"type": "Point", "coordinates": [-91.1919, 43.8228]}, "properties": {"name": "LA CROSSE, WI", "elevation": "1273 feet", "report_time_utc": "2021-12-31 12:00", "amount": "0.000", "units": "in", "duration": "6.000", "durationunits": "hours"}}, {"type": "Feature", "geometry": {"type": "Point", "coordinates": [-91.1919, 43.8228]}, "properties": {"name": "LA CROSSE, WI", "elevation": "1273 feet", "report_time_utc": "2021-12-31 05:58", "amount": "0.800", "units": "in", "duration": "24.000", "durationunits": "hours"}}, {"type": "Feature", "geometry": {"type": "Point", "coordinates": [-91.1919, 43.8228]}, "properties": {"name": "LA CROSSE, WI", "elevation": "1273 feet", "report_time_utc": "2021-12-31 05:58", "amount": "0.001", "units": "in", "duration": "6.000", "durationunits": "hours"}}, {"type": "Feature", "geometry": {"type": "Point", "coordinates": [-71.9159, 42.6178]}, "properties": {"name": "ASHBURNHAM", "elevation": "1125 feet", "report_time_utc": "2021-12-31 12:00", "amount": "0.000", "units": "in", "duration": "24.000", "durationunits": "hours"}}, {"type": "Feature", "geometry": {"type": "Point", "coordinates": [-121.7422, 46.7861]}, "properties": {"name": "RAINIER PARADISE RANGER STN", "elevation": "5390 feet", "report_time_utc": "2021-12-31 21:45", "amount": "9.000", "units": "in", "duration": "24.000", "durationunits": "hours"}}, {"type": "Feature", "geometry": {"type": "Point", "coordinates": [-77.4833, 37.75]}, "properties": {"name": "ASHLAND,VA", "elevation": "240 feet", "report_time_utc": "2021-12-31 23:00", "amount": "0.000", "units": "in", "duration": "24.000", "durationunits": "hours"}}, {"type": "Feature", "geometry": {"type": "Point", "coordinates": [-105.4833, 39.8333]}, "properties": {"name": "ASPEN SPRINGS AMRAD", "elevation": "9213 feet", "report_time_utc": "2021-12-31 14:00", "amount": "0.000", "units": "in", "duration": "24.000", "durationunits": "hours"}}, {"type": "Feature", "geometry": {"type": "Point", "coordinates": [-117.2472, 46.2039]}, "properties": {"name": "ASOTIN 14 SW", "elevation": "3399 feet", "report_time_utc": "2021-12-31 15:00", "amount": "1.000", "units": "in", "duration": "24.000", "durationunits": "hours"}}, {"type": "Feature", "geometry": {"type": "Point", "coordinates": [-100.2333, 33.1525]}, "properties": {"name": "ASPERMONT", "elevation": "1749 feet", "report_time_utc": "2021-12-31 13:00", "amount": "0.000", "units": "in", "duration": "24.000", "durationunits": "hours"}}, {"type": "Feature", "geometry": {"type": "Point", "coordinates": [-92.9739, 43.6542]}, "properties": {"name": "AUSTIN WASTE WATER TREATMENT FACILITY", "elevation": "1198 feet", "report_time_utc": "2021-12-31 13:00", "amount": "0.000", "units": "in", "duration": "24.000", "durationunits": "hours"}}, {"type": "Feature", "geometry": {"type": "Point", "coordinates": [-88.0575, 45.425]}, "properties": {"name": "ATHELSTANE", "elevation": "958 feet", "report_time_utc": "2021-12-31 12:00", "amount": "0.100", "units": "in", "duration": "24.000", "durationunits": "hours"}}, {"type": "Feature", "geometry": {"type": "Point", "coordinates": [-78.3979, 42.8107]}, "properties": {"name": "ATTICA 7 SW", "elevation": "1339 feet", "report_time_utc": "2021-12-31 11:00", "amount": "0.000", "units": "in", "duration": "24.000", "durationunits": "hours"}}, {"type": "Feature", "geometry": {"type": "Point", "coordinates": [-94.1661, 33.1244]}, "properties": {"name": "ATLANTA", "elevation": "351 feet", "report_time_utc": "2021-12-31 13:00", "amount": "0.000", "units": "in", "duration": "24.000", "durationunits": "hours"}}, {"type": "Feature", "geometry": {"type": "Point", "coordinates": [-111.637, 40.5905]}, "properties": {"name": "ALTA", "elevation": "8684 feet", "report_time_utc": "2021-12-31 01:00", "amount": "4.000", "units": "in", "duration": "24.000", "durationunits": "hours"}}, {"type": "Feature", "geometry": {"type": "Point", "coordinates": [-108.3809, 39.4992]}, "properties": {"name": "ALTENBERN", "elevation": "5676 feet", "report_time_utc": "2021-12-31 02:00", "amount": "0.200", "units": "in", "duration": "24.000", "durationunits": "hours"}}, {"type": "Feature", "geometry": {"type": "Point", "coordinates": [-101.0421, 39.7995]}, "properties": {"name": "ATWOOD", "elevation": "2930 feet", "report_time_utc": "2021-12-31 13:00", "amount": "0.000", "units": "in", "duration": "24.000", "durationunits": "hours"}}, {"type": "Feature", "geometry": {"type": "Point", "coordinates": [-86.9508, 34.7752]}, "properties": {"name": "WATER TREATMENT PLANT", "elevation": "705 feet", "report_time_utc": "2021-12-31 06:00", "amount": "0.000", "units": "in", "duration": "24.000", "durationunits": "hours"}}, {"type": "Feature", "geometry": {"type": "Point", "coordinates": [-95.1108, 39.5756]}, "properties": {"name": "ATCHISON", "elevation": "955 feet", "report_time_utc": "2021-12-31 13:00", "amount": "0.000", "units": "in", "duration": "24.000", "durationunits": "hours"}}, {"type": "Feature", "geometry": {"type": "Point", "coordinates": [-95.6458, 34.2578]}, "properties": {"name": "ANTLERS,OK", "elevation": "548 feet", "report_time_utc": "2021-12-31 13:00", "amount": "0.000", "units": "in", "duration": "24.000", "durationunits": "hours"}}, {"type": "Feature", "geometry": {"type": "Point", "coordinates": [-88.5194, 44.2575]}, "properties": {"name": "OUTAGAMIE COUNTY AIRPORT", "elevation": "873 feet", "report_time_utc": "2021-12-31 12:00", "amount": "0.001", "units": "in", "duration": "24.000", "durationunits": "hours"}}, {"type": "Feature", "geometry": {"type": "Point", "coordinates": [-80.6963, 35.5811]}, "properties": {"name": "ATWELL", "elevation": "889 feet", "report_time_utc": "2021-12-31 12:00", "amount": "0.000", "units": "in", "duration": "24.000", "durationunits": "hours"}}, {"type": "Feature", "geometry": {"type": "Point", "coordinates": [-80.6963, 35.5811]}, "properties": {"name": "ATWELL", "elevation": "889 feet", "report_time_utc": "2021-12-31 11:30", "amount": "0.000", "units": "in", "duration": "24.000", "durationunits": "hours"}}, {"type": "Feature", "geometry": {"type": "Point", "coordinates": [-97.1544, 44.9142]}, "properties": {"name": "WATERTOWN MUNICIPAL AIRPORT", "elevation": "1729 feet", "report_time_utc": "2021-12-31 12:00", "amount": "0.000", "units": "in", "duration": "24.000", "durationunits": "hours"}}, {"type": "Feature", "geometry": {"type": "Point", "coordinates": [-84.0189, 43.6253]}, "properties": {"name": "AUBURN 2NE", "elevation": "597 feet", "report_time_utc": "2021-12-31 11:30", "amount": "0.000", "units": "in", "duration": "24.000", "durationunits": "hours"}}, {"type": "Feature", "geometry": {"type": "Point", "coordinates": [-95.75, 40.3833]}, "properties": {"name": "AUBURN,NE", "elevation": "1014 feet", "report_time_utc": "2021-12-31 12:00", "amount": "0.000", "units": "in", "duration": "24.000", "durationunits": "hours"}}, {"type": "Feature", "geometry": {"type": "Point", "coordinates": [-95.75, 40.3833]}, "properties": {"name": "AUBURN,NE", "elevation": "1014 feet", "report_time_utc": "2021-12-31 12:00", "amount": "0.000", "units": "in", "duration": "23.000", "durationunits": "hours"}}, {"type": "Feature", "geometry": {"type": "Point", "coordinates": [-95.75, 40.3833]}, "properties": {"name": "AUBURN,NE", "elevation": "1014 feet", "report_time_utc": "2021-12-31 02:00", "amount": "0.000", "units": "in", "duration": "24.000", "durationunits": "hours"}}, {"type": "Feature", "geometry": {"type": "Point", "coordinates": [-76.5447, 42.9327]}, "properties": {"name": "AUBURN", "elevation": "768 feet", "report_time_utc": "2021-12-31 12:00", "amount": "0.000", "units": "in", "duration": "24.000", "durationunits": "hours"}}, {"type": "Feature", "geometry": {"type": "Point", "coordinates": [-90.9471, 40.2333]}, "properties": {"name": "AUGUSTA", "elevation": "669 feet", "report_time_utc": "2021-12-31 11:32", "amount": "0.000", "units": "in", "duration": "24.000", "durationunits": "hours"}}, {"type": "Feature", "geometry": {"type": "Point", "coordinates": [-134.6333, 58.3833]}, "properties": {"name": "AUKE BAY", "elevation": "26 feet", "report_time_utc": "2021-12-31 18:15", "amount": "0.700", "units": "in", "duration": "24.000", "durationunits": "hours"}}, {"type": "Feature", "geometry": {"type": "Point", "coordinates": [-147.7216, 64.8552]}, "properties": {"name": "AURORA", "elevation": "440 feet", "report_time_utc": "2021-12-31 06:00", "amount": "0.400", "units": "in", "duration": "24.000", "durationunits": "hours"}}, {"type": "Feature", "geometry": {"type": "Point", "coordinates": [-76.6591, 42.7338]}, "properties": {"name": "AURORA RESEARCH FARM", "elevation": "814 feet", "report_time_utc": "2021-12-31 12:00", "amount": "0.000", "units": "in", "duration": "24.000", "durationunits": "hours"}}, {"type": "Feature", "geometry": {"type": "Point", "coordinates": [-88.1181, 45.77]}, "properties": {"name": "AURORA", "elevation": "1178 feet", "report_time_utc": "2021-12-31 13:30", "amount": "0.100", "units": "in", "duration": "48.000", "durationunits": "hours"}}, {"type": "Feature", "geometry": {"type": "Point", "coordinates": [-94.8075, 33.6247]}, "properties": {"name": "AVERY 5NNW", "elevation": "410 feet", "report_time_utc": "2021-12-31 13:00", "amount": "0.000", "units": "in", "duration": "24.000", "durationunits": "hours"}}, {"type": "Feature", "geometry": {"type": "Point", "coordinates": [-85.2962, 41.3526]}, "properties": {"name": "AVILLA 3SW", "elevation": "991 feet", "report_time_utc": "2021-12-31 20:00", "amount": "0.000", "units": "in", "duration": "24.000", "durationunits": "hours"}}, {"type": "Feature", "geometry": {"type": "Point", "coordinates": [-71.6903, 45.0057]}, "properties": {"name": "AVERILL", "elevation": "1709 feet", "report_time_utc": "2021-12-31 13:00", "amount": "0.001", "units": "in", "duration": "24.000", "durationunits": "hours"}}, {"type": "Feature", "geometry": {"type": "Point", "coordinates": [-106.55, 39.6667]}, "properties": {"name": "AVON 2N", "elevation": "8458 feet", "report_time_utc": "2021-12-31 13:00", "amount": "0.300", "units": "in", "duration": "24.000", "durationunits": "hours"}}, {"type": "Feature", "geometry": {"type": "Point", "coordinates": [-77.7558, 42.9203]}, "properties": {"name": "AVON", "elevation": "541 feet", "report_time_utc": "2021-12-31 13:19", "amount": "0.000", "units": "in", "duration": "24.000", "durationunits": "hours"}}, {"type": "Feature", "geometry": {"type": "Point", "coordinates": [-89.7267, 45.8994]}, "properties": {"name": "ARBOR VITAE-JOHNSON LAKE", "elevation": "1614 feet", "report_time_utc": "2021-12-31 12:01", "amount": "0.200", "units": "in", "duration": "24.000", "durationunits": "hours"}}, {"type": "Feature", "geometry": {"type": "Point", "coordinates": [-115.8008, 41.6358]}, "properties": {"name": "WILDHORSE RESERVOIR", "elevation": "6237 feet", "report_time_utc": "2022-01-01 00:00", "amount": "6.000", "units": "in", "duration": "24.000", "durationunits": "hours"}}, {"type": "Feature", "geometry": {"type": "Point", "coordinates": [-115.8008, 41.6358]}, "properties": {"name": "WILDHORSE RESERVOIR", "elevation": "6237 feet", "report_time_utc": "2021-12-31 01:30", "amount": "3.000", "units": "in", "duration": "24.000", "durationunits": "hours"}}, {"type": "Feature", "geometry": {"type": "Point", "coordinates": [-90.8839, 46.5824]}, "properties": {"name": "ASHLAND", "elevation": "689 feet", "report_time_utc": "2021-12-31 13:00", "amount": "0.100", "units": "in", "duration": "24.000", "durationunits": "hours"}}, {"type": "Feature", "geometry": {"type": "Point", "coordinates": [-149.1081, 60.9592]},